datetime,datetime,DOY,daytime,file_records,used_records,Tau,qc_Tau,H,qc_H,LE,qc_LE,co2_flux,qc_co2_flux,h2o_flux,qc_h2o_flux,ch4_flux,qc_ch4_flux,H_strg,LE_strg,co2_strg,h2o_strg,ch4_strg,co2_v-adv,h2o_v-adv,ch4_v-adv,co2_molar_density,co2_mole_fraction,co2_mixing_ratio,co2_time_lag,co2_def_timelag,h2o_molar_density,h2o_mole_fraction,h2o_mixing_ratio,h2o_time_lag,h2o_def_timelag,ch4_molar_density,ch4_mole_fraction,ch4_mixing_ratio,ch4_time_lag,ch4_def_timelag,sonic_temperature,air_temperature,air_pressure,air_density,air_heat_capacity,air_molar_volume,ET,water_vapor_density,e,es,specific_humidity,RH,VPD,Tdew,u_unrot,v_unrot,w_unrot,u_rot,v_rot,w_rot,wind_speed,max_wind_speed,wind_dir,yaw,pitch,roll,u*,TKE,L,(z-d)/L,bowen_ratio,T*,model,x_peak,x_offset,x_10%,x_30%,x_50%,x_70%,x_90%,un_Tau,Tau_scf,un_H,H_scf,un_LE,LE_scf,un_co2_flux,co2_scf,un_h2o_flux,h2o_scf,un_ch4_flux,ch4_scf,spikes_hf,amplitude_resolution_hf,drop_out_hf,absolute_limits_hf,skewness_kurtosis_hf,skewness_kurtosis_sf,discontinuities_hf,discontinuities_sf,timelag_hf,timelag_sf,attack_angle_hf,non_steady_wind_hf,u_spikes,v_spikes,w_spikes,ts_spikes,co2_spikes,h2o_spikes,ch4_spikes,not_ready_LI-7700,no_signal_LI-7700,re_unlocked_LI-7700,bad_temp_LI-7700,laser_temp_unregulated_LI-7700,block_temp_unregulated_LI-7700,motor_spinning_LI-7700,pump_on_LI-7700,top_heater_on_LI-7700,bottom_heater_on_LI-7700,calibrating_LI-7700,motor_failure_LI-7700,bad_aux_tc1_LI-7700,bad_aux_tc2_LI-7700,bad_aux_tc3_LI-7700,box_connected_LI-7700,u_var,v_var,w_var,ts_var,co2_var,h2o_var,ch4_var,w/ts_cov,w/co2_cov,w/h2o_cov,w/ch4_cov,ch4_mean,rssi_77_mean,ch4_tc_1_mean,ch4_tc_2_mean,ch4_tc_3_mean,canopy_height,Zm,RECORD,PTemp_C_Avg,AirTC_Avg,AirTC_Max,AirTC_Min,AirTC_Std,RH_Max,RH_Min,RH.1,Rain_mm_Tot,NR_Wm2_Avg,NR_Wm2_Max,NR_Wm2_Min,NR_Wm2_Std,PPFD_Avg,PPFD_Max,PPFD_Min,PPFD_Std,PPFD_Tot,Volts_Avg,Volts_Max,Volts_Min,Volts_Std,MilliVolts_Avg,MilliVolts_Max,MilliVolts_Min,MilliVolts_Std,BattV_Min,VWC1,VWC2,Temp1,Temp2,HFP1,HFP2,Storage1,Storage2,G1,G2,PBLH,H_drop,LE_drop,co2_flux_drop,ch4_flux_drop,Minute,Day,UTC,Dir,fco2,fch4,Temp,VWC,ER,Run,Zo,d,Z_L,Z0,Sparse,Upland,Grass,Sedge,Fen,Shrub,Ocean,Water,Sum,Out_of_Basin
7/10/2016 13:30,7/10/2016 13:30,,,,,,,,,,,,,,,,,,,,,,,,,,,,,,,,,,,,,,,,,,,,,,,,,,,,,,,,,,,,,,,,,,,,,,,,,,,,,,,,,,,,,,,,,,,,,,,,,,,,,,,,,,,,,,,,,,,,,,,,,,,,,,,,,,,,,,,,,,,,,,,,,1,38.34333333,25.99,26.04,25.92,0.04,34.73666667,29.39,31.77,0.2,542.8666667,582.5666667,503.5,16.84666667,1140.333333,1144,1136.666667,1.620333333,7999,7999,7999,7999,4.839666667,2.12,2.276666667,2.096,0.043333333,12.53666667,,,,,,,,,,,,1,1,1,1,990,,2016-07-10 10:30:00-06:00,,,,,,,,100,0.295801815,,,,,,,,,,,,
7/10/2016 14:00,7/10/2016 14:00,,,,,,,,,,,,,,,,,,,,,,,,,,,,,,,,,,,,,,,,,,,,,,,,,,,,,,,,,,,,,,,,,,,,,,,,,,,,,,,,,,,,,,,,,,,,,,,,,,,,,,,,,,,,,,,,,,,,,,,,,,,,,,,,,,,,,,,,,,,,,,,,,5.5,37.76,26.1925,26.3725,26.105,0.07825,36.342,29.462,32.56833333,0,528.4166667,567.45,495.3833333,15.71,1113.833333,1132.333333,1050.966667,24.70766667,7999,5800.166667,5801.5,5798,30.90583333,6.2476,8.013,4.3404,0.8204,12.94833333,,,,,,,,,,,,1,1,1,1,1020,,2016-07-10 11:00:00-06:00,,,,,,,,100,0.295801815,,,,,,,,,,,,
7/10/2016 14:30,7/10/2016 14:30,,,,,,,,,,,,,,,,,,,,,,,,,,,,,,,,,,,,,,,,,,,,,,,,,,,,,,,,,,,,,,,,,,,,,,,,,,,,,,,,,,,,,,,,,,,,,,,,,,,,,,,,,,,,,,,,,,,,,,,,,,,,,,,,,,,,,,,,,,,,,,,,,11.5,38.58166667,26.015,26.13666667,25.86666667,0.074166667,35.08666667,30.00333333,32.61833333,0,405.7833333,491.4,302.1466667,51.17166667,742.7,870.7666667,603.425,80.13683333,7999,1366.666667,1376,1355.666667,4.3715,5.7165,10.64416667,0.619833333,2.1625,13.20166667,,,,,,,,,,,,1,1,1,1,1050,,2016-07-10 11:30:00-06:00,,,,,,,,100,0.295801815,,,,,,,,,,,,
7/10/2016 15:00,7/10/2016 15:00,,,,,,,,,,,,,,,,,,,,,,,,,,,,,,,,,,,,,,,,,,,,,,,,,,,,,,,,,,,,,,,,,,,,,,,,,,,,,,,,,,,,,,,,,,,,,,,,,,,,,,,,,,,,,,,,,,,,,,,,,,,,,,,,,,,,,,,,,,,,,,,,,17.5,33.075,24.87166667,25.17833333,24.58333333,0.187,38.28666667,32.56666667,35.46666667,0,207.67,386.9366667,93.76,96.93716667,553.2666667,879.8166667,358.5666667,176.5716667,7999,1333.833333,1340.333333,1331,2.115,2.438166667,8.598166667,-0.247833333,1.615166667,12.90833333,,,,,,,,,,,,1,1,1,1,1080,,2016-07-10 12:00:00-06:00,,,,,,,,100,0.295801815,,,,,,,,,,,,
7/10/2016 15:30,7/10/2016 15:30,,,,,,,,,,,,,,,,,,,,,,,,,,,,,,,,,,,,,,,,,,,,,,,,,,,,,,,,,,,,,,,,,,,,,,,,,,,,,,,,,,,,,,,,,,,,,,,,,,,,,,,,,,,,,,,,,,,,,,,,,,,,,,,,,,,,,,,,,,,,,,,,,23.5,29.85833333,25.17,25.45333333,24.91166667,0.161833333,40.54333333,33.61,35.49833333,0,431.65,486.2,331.4666667,43.97,934.8333333,985.5,760.6833333,61.63416667,7999,1344.5,1348.166667,1340.166667,1.932166667,3.327333333,7.9285,0.445,2.021666667,12.99333333,,,,,,,,,,,,1,1,1,1,1110,,2016-07-10 12:30:00-06:00,,,,,,,,100,0.295801815,,,,,,,,,,,,
7/10/2016 16:00,7/10/2016 16:00,,,,,,,,,,,,,,,,,,,,,,,,,,,,,,,,,,,,,,,,,,,,,,,,,,,,,,,,,,,,,,,,,,,,,,,,,,,,,,,,,,,,,,,,,,,,,,,,,,,,,,,,,,,,,,,,,,,,,,,,,,,,,,,,,,,,,,,,,,,,,,,,,29.5,29.96666667,25.96666667,26.13333333,25.81833333,0.085833333,39.125,33.98166667,35.55166667,0,387.05,416.4,357.2166667,13.20333333,839.85,848.1666667,826.0333333,5.269833333,7999,1332.5,1334.5,1329.833333,0.9855,1.571,3.685833333,-1.099,1.221833333,12.86666667,,,,,,,,,,,,1,1,1,1,1140,,2016-07-10 13:00:00-06:00,,,,,,,,100,0.295801815,,,,,,,,,,,,
7/10/2016 16:30,7/10/2016 16:30,,,,,,,,,,,,,,,,,,,,,,,,,,,,,,,,,,,,,,,,,,,,,,,,,,,,,,,,,,,,,,,,,,,,,,,,,,,,,,,,,,,,,,,,,,,,,,,,,,,,,,,,,,,,,,,,,,,,,,,,,,,,,,,,,,,,,,,,,,,,,,,,,35.5,30.305,24.95,25.135,24.76833333,0.11,49.50666667,41.87,48.39666667,0,320.9833333,357,284.0666667,15.49833333,732.5166667,740.5,716.2666667,4.648,7999,1330.666667,1332.333333,1328.833333,0.6915,1.6025,3.313833333,-0.090166667,1.014,12.845,,,,,,,,,,,,1,1,1,1,1170,,2016-07-10 13:30:00-06:00,,,,,,,,100,0.295801815,,,,,,,,,,,,
7/10/2016 17:00,7/10/2016 17:00,,,,,,,,,,,,,,,,,,,,,,,,,,,,,,,,,,,,,,,,,,,,,,,,,,,,,,,,,,,,,,,,,,,,,,,,,,,,,,,,,,,,,,,,,,,,,,,,,,,,,,,,,,,,,,,,,,,,,,,,,,,,,,,,,,,,,,,,,,,,,,,,,41.5,29.325,23.51833333,23.605,23.40333333,0.056833333,63.02666667,56.55166667,60.35166667,0,259.9833333,286.0833333,231.2333333,11.50683333,642.8333333,651.9833333,582.2833333,12.90183333,7999,1330,1331.5,1328.166667,0.611833333,1.5745,3.0605,0.045,0.959666667,12.845,,,,,,,,,,,,1,1,1,1,1200,,2016-07-10 14:00:00-06:00,,,,,,,,100,0.295801815,,,,,,,,,,,,
7/10/2016 17:30,7/10/2016 17:30,,,,,,,,,,,,,,,,,,,,,,,,,,,,,,,,,,,,,,,,,,,,,,,,,,,,,,,,,,,,,,,,,,,,,,,,,,,,,,,,,,,,,,,,,,,,,,,,,,,,,,,,,,,,,,,,,,,,,,,,,,,,,,,,,,,,,,,,,,,,,,,,,47.5,28.12333333,23.37,23.52166667,23.21166667,0.092166667,64.78333333,56.63833333,60.26666667,0,209.1333333,225.3333333,193.4833333,7.168333333,561.8833333,569.3666667,554.7166667,4.014666667,7999,1330.333333,1333.166667,1328.166667,1.197333333,1.623333333,3.7085,-0.174833333,1.203166667,12.845,,,,,,,,,,,,1,1,1,1,1230,,2016-07-10 14:30:00-06:00,,,,,,,,100,0.295801815,,,,,,,,,,,,
7/10/2016 18:00,7/10/2016 18:00,,,,,,,,,,,,,,,,,,,,,,,,,,,,,,,,,,,,,,,,,,,,,,,,,,,,,,,,,,,,,,,,,,,,,,,,,,,,,,,,,,,,,,,,,,,,,,,,,,,,,,,,,,,,,,,,,,,,,,,,,,,,,,,,,,,,,,,,,,,,,,,,,52.5,26.965,24.2225,24.3725,24.095,0.0835,49.2125,43.535,45.2675,0,162.475,181.2,142.75,9.5045,489.175,504.2,463.1,12.793,7999,1339.25,1341.75,1335.25,1.70475,2.67775,4.659,0.30475,1.4575,12.945,,,,,,,,,,,,1,1,1,1,1260,,2016-07-10 15:00:00-06:00,,,,,,,,100,0.295801815,,,,,,,,,,,,
7/10/2016 18:30,7/10/2016 18:30,,,,,,,,,,,,,,,,,,,,,,,,,,,,,,,,,,,,,,,,,,,,,,,,,,,,,,,,,,,,,,,,,,,,,,,,,,,,,,,,,,,,,,,,,,,,,,,,,,,,,,,,,,,,,,,,,,,,,,,,,,,,,,,,,,,,,,,,,,,,,,,,,57,27.326,23.494,23.542,23.442,0.028,54.31,50.71,52.394,0,109.3,117.24,100.78,3.7516,395.42,401.1,389.44,3.3242,7999,1343.4,1345.2,1341.2,1.0834,3.2216,4.2826,1.644,0.6954,12.978,,,,,,,,,,,,1,1,1,1,1290,,2016-07-10 15:30:00-06:00,,,,,,,,100,0.295801815,,,,,,,,,,,,
7/10/2016 19:00,7/10/2016 19:00,,,,,,,,,,,,,,,,,,,,,,,,,,,,,,,,,,,,,,,,,,,,,,,,,,,,,,,,,,,,,,,,,,,,,,,,,,,,,,,,,,,,,,,,,,,,,,,,,,,,,,,,,,,,,,,,,,,,,,,,,,,,,,,,,,,,,,,,,,,,,,,,,62.5,26.15333333,23.015,23.085,22.96333333,0.036,55.51,50.99333333,53.20833333,0,69.49,78.86666667,55.99,5.215333333,322.2666667,329.7166667,300.9833333,6.906166667,7999,1336.333333,1337.666667,1335,0.69,1.800666667,2.069,1.392666667,0.153,12.93333333,,,,,,,,,,,,1,1,1,1,1320,,2016-07-10 16:00:00-06:00,,,,,,,,100,0.295801815,,,,,,,,,,,,
7/10/2016 19:30,7/10/2016 19:30,192.937,1,18000,18000,0.054854451,1,-0.110476993,1,70.00473416,1,-2.252377757,1,1.588957758,1,,2,,,,,,2.01E-11,8.11E-13,9.96E-14,15.98822475,391.6847812,397.9787366,-0.2,0,645.5462101,15.81480308,16.06893005,-0.2,0,0.079283485,1.942157788,1.973366186,0,1,296.3494528,296.4576809,100608.8707,1.175239146,1014.295853,0.024498328,0.102964463,0.011632743,1591.536277,2853.665835,0.009898192,55.77164142,1262.129558,287.1037637,1.688234344,-0.695428239,0.085085294,1.827838927,-6.10E-15,1.26E-15,1.827838927,3.88245383,62.38805429,337.6119457,2.668063632,,0.2160443,0.22728641,8005.774593,0.000348498,-0.001578136,-0.000428981,0,46.7690979,-7.097391043,16.05431786,39.97752146,60.96824265,85.50882721,128.1078049,0.054359134,1.009111947,3.966046145,1.013656048,64.67160716,1.06548004,-2.693496567,1.06548004,1.46790718,1.06548004,0.000572206,1.135894291,800000009,800000009,800000009,800000009,800000009,800000009,800000000,800000000,80100,80100,89,80,2,1,2,7,4,0,1,0,0,0,0,0,0,0,0,0,0,0,0,0,0,0,18000,0.262801835,0.146055513,0.045715472,0.073772031,0.000874863,404.045456,3.93E-08,0.003327108,-0.002693497,1.46790718,5.72E-07,1.928952031,55.21135979,22.29334207,22.20937172,22.50541579,0.35,2.704198185,68.5,25.18333333,22.19333333,22.26,22.13333333,0.037666667,59.77,56.72166667,58.26333333,0,30.36,37.32833333,20.80016667,4.319,251.55,259.6166667,238.05,6.553666667,7999,1319,1320,1317.166667,0.864833333,0.219166667,0.372,0.033833333,0.080833333,12.775,,,,,,,,,,,1792,0,0,0,1,1350,192,2016-07-10 16:30:00-06:00,75,,,,,,1,0.03329538,0.295801815,0.000337781,0.084247852,0.20300788,0.009462573,0.638415707,0.003664415,0,0.115450206,0,1.40E-76,0.970000781,0.039461792
7/10/2016 20:00,7/10/2016 20:00,192.958,1,18000,18000,0.017949256,0,0.093748558,0,28.72842854,0,-1.04466938,0,0.65154418,0,0.000659894,1,-1.67140231,0,0,0,0,-1.96E-12,-8.21E-14,-9.75E-15,16.02299515,391.3611489,397.8691774,-0.2,0,669.692039,16.35720684,16.62921434,-0.2,0,0.07958615,1.942759951,1.975066523,-0.7,0,295.5718617,295.6189806,100625.5637,1.178525745,1014.580206,0.024424968,0.042220063,0.012067851,1646.394668,2712.352075,0.010239785,60.69988784,1065.957408,287.6269705,1.445160717,-0.495376034,0.053237958,1.528633767,-9.82E-15,-1.23E-16,1.528633767,2.717756415,58.92082564,341.0791744,1.995852342,,0.123410949,0.088841483,-1758.841925,-0.0015749,0.003263268,0.00063531,1,29.35623831,13,25,48,84,162,544,0.017773,1.009917062,1.763654371,1.013920515,26.59010382,1.062447597,-1.227313172,1.062447597,0.60304821,1.062447597,-0.00104087,1.135214403,800000009,800000009,800000009,800000009,800000009,800000009,800000000,800000000,80100,80100,89,80,4,7,1,0,0,0,2,0,1,0,0,0,0,0,0,0,0,0,0,0,0,0,18000,0.08970333,0.064204672,0.023774963,0.014899747,0.000741571,132.2721868,1.58E-08,0.001474986,-0.001227313,0.60304821,-1.04E-06,1.9290714,55.245302,21.41440931,21.41377907,21.755527,0.35,2.704198185,74.5,24.33,21.655,21.715,21.605,0.031833333,60.94666667,58.53,59.935,0,5.687333333,8.938666667,2.755,1.473333333,202.1833333,206.6333333,197.5333333,2.556333333,7999,1305.333333,1306,1304.333333,0.536,-0.619166667,-0.541166667,-0.7725,0.052333333,12.62,,,,,,,,,,,1823.666667,0,0,0,0,1380,192,2016-07-10 17:00:00-06:00,45,-1.04466938,0.000659894,,,,1,0.034728162,0.295801815,-0.001537488,0.016845479,0.181378084,0.010094039,0.65089838,0.018924083,0,0.110088839,0,1.37E-55,0.971383424,0.038710615
7/10/2016 20:30,7/10/2016 20:30,192.979,1,18000,18000,0.01012072,0,,0,,0,,0,0.441466467,0,,1,-1.276331963,0,0,0,0,1.13E-11,4.73E-13,5.62E-14,16.06353106,391.4313798,397.9380145,-0.4,0,671.0059599,16.35087502,16.62267022,-0.4,0,0.079763648,1.941549405,1.97382314,-0.3,0,295.0273912,294.9800159,100644.0242,1.181298108,1014.561811,0.024367705,0.028607027,0.012091528,1646.059281,2608.833377,0.010235797,63.095608,962.774096,287.6238186,1.281674848,-0.539470015,0.042584657,1.391233901,-7.09E-16,7.05E-16,1.391233901,2.18866249,62.82672192,337.1732781,1.754056097,,0.092560553,0.05256772,21.26817283,0.13024156,-0.16795526,-0.029489273,1,34.42293181,15,32,68,130,291,1347,0.010030952,1.008949058,-2.115099963,1.016950576,17.84748544,1.088834753,-0.586480347,1.088834753,0.404520317,1.088834753,0.000741378,1.205982908,800000009,800000009,800000009,800000009,800000009,800000009,800000000,800000000,80110,80110,89,80,0,4,1,2,8,5,0,0,0,0,0,0,0,0,0,0,0,0,0,0,0,0,18000,0.054667791,0.035387286,0.015080364,0.048753205,0.000262998,83.62627615,2.39E-08,-0.001764789,-0.00058648,0.404520317,7.41E-07,1.927853227,55.2781453,20.93799011,20.85975781,21.17824889,0.35,2.704198185,80.5,23.51333333,20.82166667,20.91333333,20.72166667,0.054666667,64.66833333,62.43,64.19333333,0,-16.525,-14.7315,-18.38666667,0.939833333,149.6833333,153.8833333,145.6333333,2.409166667,7999,1298,1298.666667,1297.833333,0.314833333,-1.136333333,-1.065666667,-1.285666667,0.046333333,12.55833333,,,,,,,,,,,1855.333333,1,1,1,1,1410,192,2016-07-10 17:30:00-06:00,75,,,,,,,0.03329538,0.295801815,0.127147649,,,,,,,,,,,
7/10/2016 21:00,7/10/2016 21:00,193,1,18000,18000,0.006717716,1,,0,,0,,2,0.114920744,0,,1,-1.92288915,0,0,0,0,-4.59E-13,-1.93E-14,-2.28E-15,16.15955883,392.4484007,399.0346127,0,1,679.629268,16.50536517,16.78236421,0,1,0.080391935,1.948636848,1.981339582,-0.6,0,294.0830228,294.0206076,100654.8549,1.185210628,1014.62712,0.024285836,0.007446864,0.01224692,1661.790774,2459.885025,0.010333117,67.5556279,798.0942507,287.7710546,1.340223416,-0.474753106,0.03821832,1.422339607,1.37E-14,-2.84E-17,1.422339607,2.01774737,59.50589173,340.4941083,1.539725136,,0.075285795,0.034593944,9.319279076,0.297233292,-0.791652757,-0.044377,1,51.04998372,22,50,108,217,519,2767,0.006631753,1.012962328,-3.643525884,1.026096326,4.688790043,1.137241122,0.002026308,1.137241122,0.106174678,1.137241122,0.000381619,1.314793949,800000009,800000009,800000009,800000009,800000009,800010009,800000000,800000000,81110,81110,89,80,8,4,0,9,1,9,0,0,0,0,0,0,0,0,0,0,0,0,0,0,0,0,18000,0.032777055,0.026932281,0.009478553,0.124860769,0.002725655,42.91868893,2.05E-07,-0.003029841,2.03E-06,0.106174678,3.82E-07,1.934723575,55.34380576,19.9428577,19.87740696,20.13195503,0.35,2.704198185,86.5,22.40666667,19.695,19.785,19.61166667,0.0515,68.61833333,66.945,67.98166667,0,-31.19833333,-30.08333333,-32.5,0.659166667,108.1666667,110.95,105.3666667,1.807666667,7999,1295,1295,1294.666667,0.169833333,-1.3995,-1.359,-1.5845,0.045333333,12.5,,,,,,,,,,,1887,1,1,1,1,0,193,2016-07-10 18:00:00-06:00,45,,,,,,,0.034728162,0.295801815,0.290172465,,,,,,,,,,,
7/10/2016 21:30,7/10/2016 21:30,193.02,1,18000,18000,0.010733086,1,,2,,1,,2,0.027786637,1,,1,-1.470806921,0,0,0,0,4.16E-11,1.73E-12,2.10E-13,16.32051172,395.3607464,401.9588728,0,1,677.6091104,16.41492915,16.68887587,0,1,0.082314705,1.988680117,2.021868953,0,1,293.1943415,293.2885835,100657.329,1.188238908,1014.560168,0.024224776,0.001800574,0.012210516,1652.726132,2351.293881,0.010276146,70.29007071,698.5677495,287.6863661,0.997231534,-0.97795681,0.003807027,1.396740759,4.12E-16,2.55E-15,1.396740759,2.63292742,84.44090126,315.5590987,0.15616844,,0.095040874,0.154033993,58.58154189,0.047284518,-1.047122253,-0.011222472,1,33.79174191,15,31,61,112,234,929,0.010646233,1.008158136,-1.197673813,1.014872006,1.22181303,1.077658314,-0.345195026,1.077658314,0.027647609,1.077658314,-0.019072421,1.180249693,800000009,800000009,800000009,800000009,800000019,800000019,800000010,800000010,80100,80100,89,81,0,4,1,1,2,1,3,0,103,0,0,0,0,0,0,0,0,0,0,0,0,0,18000,0.069198043,0.23116877,0.007701175,0.136677517,0.004218279,63.32860379,5.01E-06,-0.000993475,-0.000345195,0.027647609,-1.91E-05,2.127343572,55.09371061,19.0586401,19.01761534,19.22985641,0.35,2.704198185,92.5,21.19,18.96,19.10666667,18.825,0.0795,71.90333333,69.44333333,71.045,0,-42.97666667,-41.165,-45.32666667,0.912666667,78.19833333,80.375,76.255,1.409666667,7999,1292.833333,1293.166667,1292.5,0.143666667,-1.571333333,-1.534166667,-1.759666667,0.052166667,12.475,,,,,,,,,,,1610.933333,1,1,1,1,30,193,2016-07-10 18:30:00-06:00,75,,,,,,,0.03329538,0.295801815,0.046161267,0.006534619,,,,,,,,,,
7/10/2016 22:00,7/10/2016 22:00,193.041,1,18000,18000,0.006117702,1,,2,,1,,2,-0.266893348,1,,2,-1.874424811,0,0,0,0,1.64E-11,6.88E-13,8.43E-14,16.45493812,397.2936444,404.0315167,0,1,690.7043076,16.67660065,16.95942622,0.4,0,0.084707342,2.038264665,2.072832464,0,1,292.4789144,292.3588002,100672.4938,1.192078729,1014.688156,0.024144341,-0.017294689,0.012446492,1679.325316,2219.429181,0.010440998,75.66473982,540.1038657,287.9337292,0.035707322,-0.822013502,-0.004697145,0.822802087,-5.15E-14,9.96E-16,0.822802087,2.540747343,127.5127008,272.4872992,-0.32708723,,0.071637706,0.382960008,-151.7572166,-0.018252839,-0.018008147,0.00245338,1,27.50205476,12,23,43,73,136,418,0.006059674,1.00957593,-0.463646246,1.015143196,-10.87543153,1.069079625,-0.272470672,1.069079625,-0.24587211,1.069079625,-0.038906654,1.174602128,800000009,800000009,800000009,800000009,800000019,800100119,800000010,800000010,80010,80010,89,81,10,3,0,3,9,4,6,0,120,0,0,0,0,0,0,0,0,0,0,0,0,0,18000,0.192309843,0.564308363,0.009301809,0.364439022,0.009670596,888.0525939,1.33E-05,-0.000383309,-0.000272471,-0.24587211,-3.89E-05,2.025221564,54.3184941,18.67794164,18.31084148,18.41132774,0.35,2.704198185,98.5,20.08833333,18.07166667,18.13333333,18.015,0.033,88.33333333,85.40166667,88.03333333,0,-60.03166667,-55.84666667,-65.405,1.926166667,56.84666667,58.18833333,55.035,0.793166667,7999,1291,1291.5,1290.833333,0.176833333,-1.6905,-1.658,-1.878,0.048333333,12.45333333,,,,,,,,,,,1334.866667,1,1,1,1,60,193,2016-07-10 19:00:00-06:00,135,,,,,,,0.028473084,0.295801815,-0.017819239,0.02437272,,,,,,,,,,
7/10/2016 22:30,7/10/2016 22:30,193.062,1,18000,18000,0.01920045,1,,0,,1,,0,-0.11219208,1,,1,-1.802156299,0,0,0,0,1.70E-11,8.16E-13,9.08E-14,16.49010449,396.7982621,404.5171609,0,1,792.9979066,19.08175848,19.45295508,0,1,0.08831056,2.118773304,2.159989706,0,1,292.3483783,291.4682495,100705.9009,1.195023062,1016.035245,0.024062811,-0.007270047,0.014289823,1922.16114,2099.245743,0.01195778,91.56437005,177.0846025,290.0455214,-1.645096875,0.327810862,-0.038902241,1.677890662,-4.23E-14,1.03E-15,1.677890662,4.181054701,231.2694553,168.7305447,-1.328533524,,0.126755718,0.318979316,15.66142327,0.172398125,2.299050392,-0.074193963,1,28.53931068,12,27,57,111,252,1207,0.018990698,1.011044977,-11.4447536,1.022316876,-3.331153104,1.122503105,1.208327872,1.122503105,-0.075246117,1.122503105,0.003940835,1.270250743,800000009,800000009,800000009,800000009,800000009,800001109,800000000,800000000,81010,81010,89,81,2,5,3,3,3,5,1,0,1,0,0,0,0,0,0,0,0,0,0,0,0,0,18000,0.445853025,0.149616009,0.042489598,0.06202711,0.00147266,33.93014654,2.10E-06,-0.009425869,0.001208328,-0.075246117,3.94E-06,2.101196613,55.20955949,18.02398595,17.90583902,17.91915294,0.45,2.704198185,104.5,19.14833333,17.69166667,17.75,17.64,0.029833333,90.56666667,89.75,90.31666667,0,-69.44666667,-64.28333333,-75.475,2.317166667,41.72333333,42.9,40.35,0.880166667,7999,1289.5,1289.666667,1289.333333,0.137,-1.805666667,-1.770833333,-1.996333333,0.046333333,12.44166667,,,,,,,,,,,1058.8,1,1,1,1,90,193,2016-07-10 19:30:00-06:00,225,,,,,,,0.045,0.295801815,0.172666184,,,,,,,,,,,
7/10/2016 23:00,7/10/2016 23:00,193.083,1,18000,18000,0.032436682,0,,1,,1,,1,-0.078358601,1,,1,-1.031119592,0,0,0,0,2.96E-11,1.41E-12,1.55E-13,16.52917109,396.9442744,404.6074791,0,1,788.6749652,18.93984944,19.30549256,0,1,0.0864242,2.06868972,2.108626794,0,1,291.9158447,290.9597128,100731.2939,1.197478285,1015.945317,0.024014772,-0.005077637,0.014211923,1908.347297,2033.206517,0.011868209,93.85899961,124.8592202,289.9318633,-1.767923873,0.330132951,-0.014258864,1.798539936,-7.51E-14,1.79E-15,1.798539936,5.58087908,230.5772969,169.4227031,-0.454246942,,0.164582777,0.635903613,39.75864505,0.066149136,2.837424768,-0.049182678,1,21.23281018,9,19,39,73,154,630,0.032157766,1.008673341,-9.877558545,1.01719944,-2.219658704,1.096150647,0.706163108,1.096150647,-0.050114419,1.096150647,0.01352591,1.209147032,800000009,800000009,800000009,800000009,800000009,801000019,800000000,800000000,81010,81010,89,81,0,7,2,1,2,0,0,0,0,0,0,0,0,0,0,0,0,0,0,0,0,0,18000,0.328128976,0.887943035,0.055735216,0.087829655,0.002560656,24.17464387,7.31E-07,-0.00811917,0.000706163,-0.050114419,1.35E-05,2.051615004,54.98604709,17.63456792,17.5232737,17.5259717,0.55,2.704198185,110.5,18.415,17.10833333,17.13833333,17.07,0.019333333,94.16666667,93.26666667,93.98333333,0,-70.94,-65.86166667,-76.38,2.246,32.76,33.31,32.34,0.3115,7999,1288.333333,1288.5,1288.166667,0.114333333,-1.908333333,-1.878,-2.109333333,0.048833333,12.43166667,,,,,,,,,,,782.7333333,1,1,1,1,120,193,2016-07-10 20:00:00-06:00,225,,,,,,,0.055,0.295801815,0.068015351,,,,,,,,,,,
7/10/2016 23:30,7/10/2016 23:30,193.104,1,18000,18000,0.027743488,0,,0,,0,,0,-0.121562341,0,,0,-1.163223203,0,0,0,0,-1.08E-11,-5.11E-13,-5.64E-14,16.61145189,398.0528345,405.6520968,0,1,781.7800448,18.73344755,19.09108947,0,1,0.086369652,2.061932844,2.101297389,0,1,291.3517162,290.3872445,100752.1744,1.200182041,1015.817648,0.023962555,-0.00787724,0.014087677,1887.94186,1961.04966,0.01173795,96.27200671,73.10779967,289.762642,-1.558365704,0.548629784,-0.033310188,1.652455105,-3.93E-16,-6.53E-16,1.652455105,3.899580342,239.3948509,160.6051491,-1.155046491,,0.152039689,0.24598398,32.05210529,0.082053892,1.787758762,-0.051957864,1,20.92017443,9,19,39,73,157,665,0.02749321,1.009103273,-9.762042896,1.017978932,-3.954445793,1.09844869,0.995551576,1.09844869,-0.089232377,1.09844869,0.002078396,1.218836201,800000009,800000009,800000009,800000009,800000009,800000009,800000000,800000000,81010,81010,89,80,2,1,2,0,0,3,0,0,0,0,0,0,0,0,0,0,0,0,0,0,0,0,18000,0.30980801,0.141160648,0.040999302,0.018318877,0.000880622,10.45868906,1.58E-07,-0.008007148,0.000995552,-0.089232377,2.08E-06,2.045080875,54.55403613,17.10169254,17.0330584,17.02479832,0.55,2.704198185,116.5,17.82833333,16.90666667,16.99166667,16.81333333,0.050333333,95.61666667,94.55,95.06666667,0,-72.88166667,-66.48666667,-81.165,2.933166667,27.35333333,27.73333333,27.24666667,0.183166667,7977.5,1286.833333,1287.5,1286.333333,0.157166667,-1.991666667,-1.951666667,-2.154666667,0.044,12.43666667,,,,,,,,,,,506.6666667,1,1,1,1,150,193,2016-07-10 20:30:00-06:00,225,,,,,,,0.055,0.295801815,0.084368816,,,,,,,,,,,
7/11/2016 0:00,7/11/2016 0:00,193.124,1,18000,18000,0.034324297,1,,2,,2,,2,0.103142833,2,,2,-0.191242968,0,0,0,0,1.38E-10,6.46E-12,6.98E-13,16.58753585,397.2707884,404.7906118,0,1,775.6618853,18.57706964,18.92870959,0,1,0.083754177,1.998507666,2.036336837,0,1,291.4041766,290.293173,100772.5121,1.200884826,1015.726929,0.023949958,0.006683656,0.013977427,1872.560134,1949.409713,0.011639274,96.05780263,76.84957844,289.6340176,-1.980340664,1.077735707,-0.007442378,2.254621651,1.08E-13,8.33E-15,2.254621651,5.209293129,248.5557984,151.4442016,-0.189130448,,0.169063613,0.555749504,86.60425996,0.030368021,-1.072200584,-0.02376781,1,28.74764895,13,26,51,91,187,704,0.034060657,1.007740302,-4.57436548,1.015589348,4.544538578,1.091912858,-0.88231001,1.091912858,0.102538571,1.091912858,-0.039827434,1.187558414,800000009,800000009,800000009,800000009,800000009,800000009,800000000,800000000,80100,80100,89,81,0,5,0,0,1,1,0,0,0,0,0,0,0,0,0,0,0,0,0,0,0,0,18000,0.684649858,0.357882314,0.068966835,0.152602597,0.006530171,63.76959123,2.76E-06,-0.003750184,-0.00088231,0.102538571,-3.98E-05,1.982247853,54.00265073,17.13503269,17.08829793,17.08771317,0.55,2.704198185,122.5,17.68833333,17.52,17.55833333,17.47666667,0.023333333,92.48333333,91.2,91.58333333,0,-77.24166667,-71.21666667,-84.61166667,2.926,26.52166667,26.64166667,26.52,0.012,7957.333333,1285.5,1286,1285.166667,0.196333333,-1.9835,-1.963,-2.166,0.054166667,12.41166667,,,,,,,,,,,230.6,1,1,1,1,180,193,2016-07-10 21:00:00-06:00,255,,,,,,,0.03095081,0.295801815,0.031224771,0.01141384,,,,,,,,,,
7/11/2016 0:30,7/11/2016 0:30,193.145,1,18000,18000,0.09679932,0,-25.68415677,0,-8.782532907,0,0.605547644,0,-0.198239394,0,-0.004722413,0,0.837789336,0,0,0,0,2.41E-12,1.14E-13,1.19E-14,16.46876713,394.9320902,402.4793786,0,1,781.9625849,18.75198766,19.11034461,0,1,0.081403042,1.946112718,1.983303602,0,1,291.8131305,290.7057904,100786.5008,1.199266909,1015.833894,0.023980671,-0.012845913,0.014090966,1890.454179,2000.918666,0.01174965,94.47931147,110.4644872,289.783563,-2.29749779,1.865096773,0.013026936,2.95926541,-1.83E-14,1.46E-16,2.95926541,5.493637158,259.0695126,140.9304874,0.252221673,,0.284104576,0.464328001,78.43965332,0.03352896,2.924458928,-0.074207625,0,36.80846394,-5.585826412,12.63515455,31.46332136,47.98355029,67.29761155,100.8240853,0.09600931,1.008228477,-25.73988935,1.01732136,-5.509618411,1.108136902,1.694926386,1.108136902,-0.124363145,1.108136902,0.002874703,1.201530429,800000009,800000009,800000009,800000009,800000009,800000009,800000000,800000000,81010,81010,89,80,2,3,1,0,0,1,0,0,0,0,0,0,0,0,0,0,0,0,0,0,0,0,18000,0.574156708,0.251884136,0.102615159,0.034938565,0.000711102,15.38614692,3.71E-08,-0.021128474,0.001694926,-0.124363145,2.87E-06,1.930195176,54.04481747,17.54929882,17.52431813,17.52912289,0.55,2.704198185,128.5,17.655,17.31,17.34,17.285,0.015666667,92.3,91.43333333,91.73333333,0,-85.05,-77.68833333,-93.56666667,3.792166667,29.35,29.68,28.71,0.417,7999,1285,1285.166667,1284.833333,0.118166667,-1.957333333,-1.923333333,-2.160333333,0.052,12.39666667,,,,,,,,,,,203.61,0,0,0,0,210,193,2016-07-10 21:30:00-06:00,255,0.605547644,-0.004722413,,,,1,0.03095081,0.295801815,0.034474887,0.037786592,0,0.129164395,0.330266493,6.84E-06,3.45E-58,0.470621418,0.03421232,0,0.964271468,0.199105247
7/11/2016 1:00,7/11/2016 1:00,193.166,1,18000,18000,0.074194182,0,-23.19799617,0,-4.637861067,0,0.365897689,0,-0.104668788,0,-0.005112114,0,-0.34321105,0,0,0,0,1.84E-11,8.61E-13,9.04E-14,16.48545723,395.0481949,402.5044693,0,1,773.0402186,18.5246996,18.8743411,0,1,0.081209212,1.939821235,1.976434083,0,1,291.5573862,290.5368705,100800.3847,1.200233352,1015.701448,0.023963436,-0.006782537,0.013930185,1867.797729,1979.68917,0.011606231,94.34802983,111.8914414,289.5940055,-1.826336168,2.084828739,0.018604409,2.771707198,-1.22E-14,1.11E-15,2.771707198,5.034706358,268.7812329,131.2187671,0.38458684,,0.24862917,0.398176795,58.20975039,0.045181434,5.001873889,-0.076536153,0,34.19525059,-5.189261203,11.73812297,29.22958589,44.57696276,62.51982409,93.66608909,0.073572621,1.008448274,-23.05958519,1.017668811,-2.081707463,1.108926654,1.340929836,1.108926654,-0.046980665,1.108926654,0.001688822,1.207414015,800000009,800000009,800000009,800000009,800000009,800000009,800000000,800000000,81010,81010,89,80,7,7,0,0,2,1,0,0,0,0,0,0,0,0,0,0,0,0,0,0,0,0,18000,0.423199866,0.278679358,0.094474366,0.024847002,0.000597203,39.02129373,2.17E-08,-0.018915583,0.00134093,-0.046980665,1.69E-06,1.924141845,54.01674319,17.32413783,17.29292225,17.29605263,0.55,2.704198185,134.5,17.59,17.21666667,17.24333333,17.195,0.014166667,91.23333333,90.26666667,90.98333333,0,-78.17166667,-71.83,-86.11833333,3.542666667,32.35833333,32.59333333,32.10666667,0.125333333,7999,1284.166667,1284.833333,1284,0.116,-1.886833333,-1.850166667,-2.0815,0.055166667,12.38666667,,,,,,,,,,,176.62,0,0,0,0,240,193,2016-07-10 22:00:00-06:00,255,0.365897689,-0.005112114,,,,1,0.03095081,0.295801815,0.046456103,0.027991434,0,0.104915719,0.411708326,8.92E-07,1.02E-64,0.409501144,0.036898903,0,0.963024984,0.178789638
7/11/2016 1:30,7/11/2016 1:30,193.187,1,18000,18000,0.093136962,0,-22.34238702,0,-4.22187256,0,0.538121326,0,-0.095276822,0,-0.001187366,0,-0.084090286,0,0,0,0,2.33E-11,1.08E-12,1.15E-13,16.48246005,394.846811,402.2170796,0,1,764.9203289,18.32410645,18.66614692,0,1,0.081151168,1.937897469,1.974070547,-0.8,0,291.4137225,290.4954954,100819.1008,1.200718895,1015.586543,0.023955575,-0.006173938,0.013783865,1847.915486,1974.51944,0.011479677,93.58811305,126.6039543,289.4259883,-1.915237917,2.153071502,0.027939166,2.881776148,-4.57E-14,1.41E-15,2.881776148,4.996996709,268.3457064,131.6542936,0.55549816,,0.278509724,0.439885031,84.9616799,0.030955132,5.292056238,-0.065785613,0,37.02171591,-5.61818822,12.70835705,31.64560594,48.26154577,67.68750416,101.4082155,0.092389776,1.008087324,-22.21140574,1.01695308,-1.815496398,1.105318378,1.461405692,1.105318378,-0.040971092,1.105318378,0.004748659,1.198130562,800000009,800000009,800000009,800000009,800000009,800000009,800000000,800000000,81010,81010,89,80,2,4,0,0,0,0,0,0,0,0,0,0,0,0,0,0,0,0,0,0,0,0,18000,0.49441141,0.288159235,0.097199418,0.023393394,0.000490646,8.620259723,2.53E-08,-0.018214521,0.001461406,-0.040971092,4.75E-06,1.922395819,54.07045492,17.25083597,17.20961874,17.20011375,0.55,2.704198185,140.5,17.61333333,17.15666667,17.17833333,17.135,0.013666667,91.16666667,89.9,90.2,0,-72.44833333,-68.06666667,-78.13833333,2.021,41.40833333,43.27666667,39.27,1.348333333,7999,1284,1284,1283.166667,0.260833333,-1.8,-1.76,-2.0195,0.060333333,12.37166667,,,,,,,,,,,149.63,0,0,0,0,270,193,2016-07-10 22:30:00-06:00,255,0.538121326,-0.001187366,,,,1,0.03095081,0.295801815,0.031828445,0.03887058,0,0.104872425,0.410842195,2.78E-07,1.45E-72,0.411478557,0.036353692,0,0.963547147,0.17767897
7/11/2016 2:00,7/11/2016 2:00,193.208,1,18000,18000,0.089190739,0,-23.89125196,0,-0.311019011,1,0.18744583,0,-0.007019105,1,-0.003740111,0,0.061482655,0,0,0,0,-5.44E-13,-2.50E-14,-2.68E-15,16.47100195,394.5598305,401.8515195,0,1,757.4773874,18.14523187,18.48056603,0.1,0,0.08109829,1.936735635,1.972527606,0,1,291.3283322,290.5257468,100832.7929,1.200838704,1015.485333,0.023954817,-0.000454838,0.013649743,1830.125188,1978.298126,0.011366841,92.51008047,148.1729376,289.2742984,-1.490803795,2.430913878,0.036025236,2.851865364,-1.11E-14,-3.30E-17,2.851865364,5.137938647,278.4805069,121.5194931,0.723789029,,0.272532024,0.399588228,74.45154202,0.03532499,76.81605019,-0.071889098,0,36.27078065,-5.504230898,12.45058528,31.00371777,47.28262582,66.31455501,99.35128749,0.088466077,1.008191411,-23.51589152,1.017161546,1.769774044,1.106398363,1.175855775,1.106398363,0.03994042,1.106398363,0.002778221,1.20080917,800000009,800000009,800000009,800000009,800000009,800000009,800000000,800000000,81110,81110,89,80,6,2,0,0,2,8,2,0,3,0,0,0,0,0,0,0,0,0,0,0,0,0,18000,0.443454711,0.257757607,0.097964139,0.021400299,0.000507334,103.5066321,2.29E-08,-0.019284266,0.001175856,0.03994042,2.78E-06,1.92139047,54.04971122,17.2569467,17.18732054,17.15338182,0.55,2.704198185,146.5,17.68166667,17.11333333,17.135,17.09666667,0.009,89.33333333,88.38333333,88.98333333,0,-58.24666667,-54.45166667,-62.83333333,1.878666667,69.11833333,71.19666667,67.31,1.220166667,7999,1283.666667,1284,1283,0.285166667,-1.613,-1.574,-1.822,0.064333333,12.38166667,,,,,,,,,,,122.64,0,0,0,0,300,193,2016-07-10 23:00:00-06:00,285,0.18744583,-0.003740111,,,,1,0.024490017,0.295801815,0.036321587,0.037046909,2.23E-168,0.077320322,0.565343005,8.21E-13,7.49E-149,0.278759082,0.040314774,0,0.961737182,0.155897913
7/11/2016 2:30,7/11/2016 2:30,193.229,1,18000,18000,0.051723552,0,-14.95884702,0,-1.060649454,1,0.105592968,0,-0.023937175,1,-0.002472729,0,0.030218626,0,0,0,0,1.50E-11,6.84E-13,7.42E-14,16.46848785,394.4228646,401.6221015,0,1,748.44605,17.92540018,18.25258507,0,1,0.081258309,1.940484383,1.975903239,0,1,291.1753229,290.540613,100857.5721,1.201172874,1015.36066,0.023950157,-0.001551129,0.013486998,1808.397295,1980.157377,0.011228191,91.32593782,171.760082,289.0872681,-1.123543415,2.283966965,0.022946527,2.545462914,2.54E-15,9.13E-16,2.545462914,4.667876606,283.8062138,116.1937862,0.516509964,,0.207511138,0.272986497,52.49830903,0.051430228,14.10347873,-0.059105903,0,35.95064154,-5.455648552,12.34069188,30.73006767,46.86529215,65.7292386,98.47437685,0.051297593,1.008303673,-14.77196357,1.017104621,0.324703356,1.103642925,0.734160581,1.103642925,0.00732804,1.103642925,0.001679209,1.203094756,800000009,800000009,800000009,800000009,800000009,800000009,800000000,800000000,81110,81110,89,80,5,1,0,0,2,14,0,0,0,0,0,0,0,0,0,0,0,0,0,0,0,0,18000,0.314576339,0.165845151,0.065551505,0.015843014,0.000250791,6.530388115,2.41E-08,-0.012111903,0.000734161,0.00732804,1.68E-06,1.925292,54.19364153,17.22766067,17.10206475,17.05513983,0.45,2.704198185,152.5,17.90166667,17.06833333,17.08666667,17.05166667,0.008333333,89.08333333,88.18333333,88.61666667,0,-44.46666667,-41.345,-49.16333333,2.029666667,72.17333333,73.5,70.82666667,0.937166667,7999,1283.5,1284,1283,0.2445,-1.464166667,-1.421,-1.680666667,0.058666667,12.365,,,,,,,,,,,95.65,0,0,0,0,330,193,2016-07-10 23:30:00-06:00,285,0.105592968,-0.002472729,,,,1,0.024490017,0.295801815,0.051510196,,2.83E-146,0.059801458,0.697733758,3.93E-21,4.01E-272,0.160768224,0.043263303,0,0.961566743,0.141498018
7/11/2016 3:00,7/11/2016 3:00,193.249,1,18000,18000,0.058040883,0,-12.43673967,0,0.587810615,1,-0.082788801,0,0.013265975,1,-0.000587925,0,0.0035212,0,0,0,0,-2.08E-11,-9.40E-13,-1.03E-13,16.45510009,394.034921,401.190417,0,1,744.8263104,17.83566035,18.15954788,0,1,0.08124534,1.940103197,1.975334594,-0.7,0,291.10761,290.542345,100875.4009,1.20141909,1015.309734,0.023946066,0.000859635,0.01342177,1799.661999,1980.37409,0.011171597,90.87485073,180.7120919,289.0115194,-1.368035229,2.06158425,0.022334554,2.474297646,1.84E-14,-1.26E-15,2.474297646,4.564853464,276.432367,123.567633,0.517194468,,0.219795978,0.344299641,75.04465123,0.03597858,-21.15773235,-0.046386726,0,37.33912385,-5.6663561,12.81731293,31.91692147,48.67531908,68.26782711,102.277645,0.057589107,1.007844817,-12.21345112,1.015998414,1.582964192,1.09633218,0.446415694,1.09633218,0.03572505,1.09633218,0.002567788,1.190789018,800000009,800000009,800000009,800000009,800000009,800000009,800000000,800000000,81110,81110,89,80,3,2,0,0,7,17,1,0,1,0,0,0,0,0,0,0,0,0,0,0,0,0,18000,0.340474712,0.281229267,0.066895303,0.010533673,0.00017964,14.30695199,2.08E-08,-0.010012564,0.000446416,0.03572505,2.57E-06,1.924988384,54.2793107,17.1680646,17.05423283,17.0100799,0.45,2.704198185,158.5,17.85833333,17.03333333,17.07666667,16.99666667,0.025,89.51666667,88.05,88.68333333,0,-3.823333333,3.039166667,-11.475,4.2885,101.67,105.4166667,97.64166667,2.423166667,7999,1283.5,1284.333333,1283.333333,0.151666667,-1.223,-1.133666667,-1.460833333,0.080666667,12.36833333,,,,,,,,,,,68.66,0,0,0,0,360,193,2016-07-11 00:00:00-06:00,285,-0.082788801,-0.000587925,,,,1,0.024490017,0.295801815,0.036034523,0.026764848,6.96E-125,0.086092169,0.497766325,7.33E-08,2.53E-77,0.336459493,0.040544756,0,0.960862817,0.165774109
7/11/2016 3:30,7/11/2016 3:30,193.27,1,18000,18000,0.050477898,0,-9.325223373,0,5.228191684,0,,2,0.117987276,0,-0.000437725,1,-0.087859003,0,0,0,0,-5.97E-11,-2.70E-12,-2.95E-13,16.43256223,393.2885864,400.4135152,0,1,743.4739244,17.79392676,18.11628663,0,1,0.081296694,1.9408999,1.976061799,-0.7,0,291.2325191,290.4991514,100913.3982,1.202069437,1015.285324,0.023933491,0.007645575,0.0133974,1796.127279,1974.975768,0.01114528,90.94426915,178.8484899,288.9807761,-1.662344703,1.46013178,0.014758869,2.212598597,-2.28E-14,-3.63E-15,2.212598597,4.402362418,261.2946748,138.7053252,0.382187337,,0.20492071,0.445888403,81.12946515,0.033280141,-1.783642211,-0.037286853,0,34.54670213,-5.24259533,11.85876491,29.53000138,45.03511533,63.16238959,94.62876931,0.050093127,1.007681096,-8.897290862,1.015335097,5.506121693,1.089998527,0.390106339,1.089998527,0.124259465,1.089998527,0.001682599,1.184785768,800000009,800000009,800000009,800000009,800000009,800000009,800000000,800000000,81110,81110,89,81,2,0,0,1,8,2,1,0,0,0,0,0,0,0,0,0,0,0,0,0,0,0,18000,0.629971888,0.191185902,0.070619017,0.008929981,0.000648793,20.33885815,2.47E-08,-0.007290211,0.000390106,0.124259465,1.68E-06,1.925795124,54.29084445,17.22967683,17.15794663,17.11220901,0.45,2.704198185,164.5,18.33,17.25666667,17.28166667,17.225,0.015833333,88.38333333,87.06666667,87.93333333,0,29.31333333,37.295,21.825,3.448333333,137.7833333,141.1166667,132.7333333,2.036,7999,1284.5,1285.333333,1284.333333,0.183833333,-0.879666667,-0.823833333,-1.054833333,0.060333333,12.37,,,,,,,,,,,71.76333333,0,0,1,0,390,193,2016-07-11 00:30:00-06:00,255,,-0.000437725,,,,1,0.03095081,0.295801815,0.033331887,0.032318871,0,0.126529435,0.335981806,3.16E-06,1.31E-61,0.464995194,0.035636175,0,0.963145774,0.199019836
7/11/2016 4:00,7/11/2016 4:00,193.291,1,18000,18000,0.022092446,0,,0,,0,,0,0.158795827,0,,0,1.272228071,0,0,0,0,-1.16E-11,-5.30E-13,-5.82E-14,16.40052932,393.1846741,400.4000607,0,1,751.6692027,18.02044341,18.35113907,0,1,0.082494643,1.97515187,2.011398156,0,1,291.250127,291.1256334,100960.5599,1.199939761,1015.425688,0.023973901,0.01028997,0.013545079,1819.842079,2054.550187,0.011288133,88.57618036,234.7081078,289.1860275,-1.355759868,-0.080028378,-0.024610582,1.358342756,1.44E-14,-7.05E-16,1.358342756,3.27005744,216.62184,183.37816,-1.038147142,,0.13568823,0.224804811,-41.14993795,-0.063912612,0.75929758,0.032296492,1,22.01208838,10,18,32,52,92,254,0.02186331,1.010480399,5.664950125,1.014592458,6.021727837,1.063550814,-1.015686219,1.063550814,0.135977516,1.063550814,0.014501818,1.140822997,800000009,800000009,800000009,800000009,800000009,800000019,800000000,800000000,80110,80110,89,80,1,15,1,1,2,1,1,0,1,0,0,0,0,0,0,0,0,0,0,0,0,0,18000,0.214834174,0.194533144,0.040242304,0.010976874,0.000792156,37.94910438,2.95E-06,0.00464931,-0.001015686,0.135977516,1.45E-05,1.959602688,54.31995674,17.72234036,17.39206497,17.27059777,0.55,2.704198185,170.5,18.90333333,17.02333333,17.07666667,16.96833333,0.033666667,90.31666667,88.91666667,89.75,0,49.47333333,66.82166667,28.46166667,10.22366667,206.8333333,236.85,174.8166667,20.11633333,7999,1285,1285,1285,0.070166667,-0.818833333,-0.716166667,-1.049333333,0.078,12.395,,,,,,,,,,,74.86666667,1,1,1,1,420,193,2016-07-11 01:00:00-06:00,225,,,,,,,0.055,0.295801815,-0.065715729,,,,,,,,,,,
7/11/2016 4:30,7/11/2016 4:30,193.312,1,18000,18000,0.028978684,0,,0,,1,,0,0.273219491,1,,0,-0.651764991,0,0,0,0,-1.13E-11,-5.15E-13,-5.90E-14,16.42849918,393.3650609,400.5776679,0,1,751.9823405,18.00551444,18.33565739,0,1,0.08612629,2.059151319,2.096907213,0,1,291.0073017,290.8050821,100975.0599,1.201441797,1015.411317,0.023944066,0.017704623,0.013550722,1818.595588,2013.490336,0.011278717,90.32055211,194.894748,289.1752977,-1.534242282,-0.165872133,-0.029896725,1.543472305,5.54E-15,-6.85E-16,1.543472305,3.601528989,213.8295258,186.1704742,-1.109876281,,0.155305901,0.246585748,-31.23912953,-0.084189286,0.871472417,0.055669957,1,21.64497417,9,18,31,50,87,233,0.028697037,1.009814497,11.08900331,1.014344348,10.22424845,1.065588847,-1.345659754,1.065588847,0.230803899,1.065588847,0.005113426,1.141545782,800000009,800000009,800000009,800000009,800000009,800000009,800000000,800000000,80110,80110,89,80,3,22,0,0,0,0,0,0,0,0,0,0,0,0,0,0,0,0,0,0,0,0,18000,0.267530718,0.169098665,0.056542113,0.029628755,0.001484334,53.92644551,3.61E-07,0.009089663,-0.00134566,0.230803899,5.11E-06,2.042936777,54.28861374,17.38542318,17.04342342,16.93896275,0.55,2.704198185,176.5,19.07166667,17.225,17.295,17.15833333,0.038333333,88.95,87.45,88.15,0,110.4833333,126.7166667,89.625,8.485333333,348.9333333,359.6833333,307.1166667,9.936166667,7999,1288.5,1289,1287.666667,0.365666667,-0.169333333,-0.073333333,-0.406166667,0.0795,12.42166667,,,,,,,,,,,77.97,1,1,1,1,450,193,2016-07-11 01:30:00-06:00,225,,,,,,,0.055,0.295801815,-0.086564454,,,,,,,,,,,
7/11/2016 5:00,7/11/2016 5:00,193.333,1,18000,18000,0.054759704,0,,0,,0,,0,0.272974471,0,,0,0.858793976,0,0,0,0,-1.36E-11,-6.26E-13,-7.11E-14,16.36123849,392.2052246,399.3889677,0,1,750.3390183,17.98683415,18.31628615,0,1,0.085212895,2.041103235,2.078488666,0.2,0,291.3518632,291.2279385,101005.6939,1.200069831,1015.408614,0.02397161,0.017688746,0.013521109,1817.259995,2067.808111,0.011266935,87.88339621,250.5481159,289.1637939,-2.054127937,0.555264804,-0.033145584,2.128111654,-4.03E-14,-8.34E-16,2.128111654,4.858662085,235.1264791,164.8735209,-0.892424434,,0.213612807,0.550588045,-45.4049742,-0.057923169,1.56253533,0.072558517,0,32.73779954,-4.968087383,11.23782719,27.98377865,42.67702812,59.85513874,89.67390487,0.054290215,1.008647776,19.30974418,1.014293726,9.412712928,1.073194555,-1.884521242,1.073194555,0.212570818,1.073194555,0.002347862,1.145333296,800000009,800000009,800000009,800000009,800000009,800000009,800000000,800000000,80110,80110,89,81,0,6,0,0,4,2,3,0,2,0,0,0,0,0,0,0,0,0,0,0,0,0,18000,0.69675036,0.326665926,0.077759805,0.030481163,0.001751328,27.21800006,3.37E-07,0.015846347,-0.001884521,0.212570818,2.35E-06,2.025056556,54.30189916,17.81560709,17.6325144,17.45259448,0.55,2.704198185,182.5,19.48333333,17.585,17.64166667,17.52666667,0.032333333,86.78333333,85.05,85.83333333,0,143.4166667,183.1833333,94.93666667,22.38333333,405.6166667,466.8333333,301.2833333,41.67283333,7999,1288.833333,1289.833333,1288.333333,0.4425,-0.109333333,0.135333333,-0.434333333,0.127,12.39333333,,,,,,,,,,,81.07333333,1,1,1,1,480,193,2016-07-11 02:00:00-06:00,225,,,,,,,0.055,0.295801815,-0.059557311,,,,,,,,,,,
7/11/2016 5:30,7/11/2016 5:30,193.354,1,18000,18000,0.112344152,0,,0,,0,,0,0.438062505,0,,1,0.198106152,0,0,0,0,1.08E-11,4.90E-13,5.43E-14,16.36491875,392.309572,399.4256993,0,1,743.1776726,17.81589748,18.13906113,0,1,0.08228647,1.971695605,2.007460312,0,1,291.4103691,291.3254896,101035.3741,1.200098599,1015.313458,0.023972595,0.02838645,0.013392062,1800.518707,2080.519711,0.011159135,86.54177597,280.0010038,289.0189627,-2.566522787,1.257445261,0.007244757,2.858016845,-1.81E-14,6.60E-16,2.858016845,7.004404235,246.1021374,153.8978626,0.145238633,,0.305961492,0.722978987,-83.27541659,-0.031581949,1.560415997,0.081182597,0,35.23425105,-5.346933531,12.09477821,30.11770785,45.93140479,64.4194483,96.51207232,0.111429791,1.008205715,30.91209681,1.015080424,14.98675545,1.083930334,-2.635150865,1.083930334,0.338483353,1.083930334,-0.018152432,1.15192919,800000009,800000009,800000009,800000009,800000009,800000009,800000000,800000000,80100,80100,89,80,1,7,1,0,5,3,0,0,0,0,0,0,0,0,0,0,0,0,0,0,0,0,18000,1.004318286,0.308886417,0.13275327,0.058707713,0.002637155,109.7807666,1.30E-06,0.02536947,-0.002635151,0.338483353,-1.82E-05,1.956360181,54.456669,17.89566712,17.75272181,17.55074433,0.55,2.704198185,188.5,19.41833333,16.835,16.94166667,16.705,0.073,88.28333333,86.5,87.9,0,143.8833333,213.7666667,91.15833333,30.6755,342.5833333,517.3166667,252.9833333,64.29333333,7999,1293,1293.666667,1292.333333,0.381,0.231333333,0.637166667,-0.276333333,0.2465,12.465,,,,,,,,,,,84.17666667,1,1,1,1,510,193,2016-07-11 02:30:00-06:00,255,,,,,,,0.03095081,0.295801815,-0.032472947,0.058715855,,,,,,,,,,
7/11/2016 6:00,7/11/2016 6:00,193.374,1,18000,18000,0.093554399,0,,1,,2,,0,0.124258749,2,,1,-2.57881154,0,0,0,0,7.18E-11,3.15E-12,3.58E-13,16.46294368,392.842311,399.7365924,0,1,722.7770231,17.24706113,17.54974262,0,1,0.081934462,1.951774552,1.986027693,-0.5,0,290.4762334,290.061325,101062.2777,1.205910989,1014.967146,0.023862216,0.008051967,0.013024442,1743.49483,1920.980234,0.0108005,90.76068557,177.4854039,288.5166017,-2.596926401,1.239673237,-0.015998855,2.877685255,3.41E-14,4.36E-15,2.877685255,6.090471434,245.5180229,154.4819771,-0.318544781,,0.278531603,0.666220662,-122.7034496,-0.02143379,2.81340245,0.045458664,0,34.2695599,-5.200537928,11.76363095,29.29310437,44.67383245,62.65568521,93.86963381,0.092793241,1.008202722,15.57884394,1.01510958,3.702864554,1.08422923,-1.392874189,1.08422923,0.083529191,1.08422923,-0.002331111,1.152125096,800000009,800000009,800000009,800000009,800001109,800001109,800000000,800000000,80100,80100,89,80,3,0,1,2,2,6,0,0,0,0,0,0,0,0,0,0,0,0,0,0,0,0,18000,0.851785293,0.362732103,0.117923929,0.261736586,0.002805556,107.0629874,6.54E-08,0.012728229,-0.001392874,0.083529191,-2.33E-06,1.937025694,54.52680711,16.63952758,16.51565648,16.42963582,0.55,2.704198185,194.5,18.33333333,15.49,15.58333333,15.41333333,0.052666667,93.03333333,91.66666667,92.55,0,107.09,143.0816667,77.17333333,17.84683333,211.9333333,288.9166667,160.9833333,36.03,7999,1290,1291.333333,1288.333333,0.960166667,-0.169666667,0.377833333,-0.705,0.325833333,12.42666667,,,,,,,,,,,87.28,1,1,1,1,540,193,2016-07-11 03:00:00-06:00,255,,,,,,,0.03095081,0.295801815,-0.022038485,0.039118392,,,,,,,,,,
7/11/2016 6:30,7/11/2016 6:30,193.395,1,18000,18000,0.06482493,0,,0,,2,,0,0.079290169,2,,0,-2.556240454,0,0,0,0,-2.27E-11,-9.59E-13,-1.13E-13,16.55035688,393.0589419,399.6943291,0,1,699.0173694,16.60115426,16.88140507,0,1,0.082687912,1.958270378,1.991328734,0.3,0,289.3874998,288.8139849,101106.231,1.211943723,1014.578368,0.023749273,0.005138003,0.012596293,1678.930371,1774.181569,0.010393464,94.6312599,95.25119727,287.9300816,-2.365835162,0.92219589,-0.044885325,2.539613349,1.40E-14,-1.37E-15,2.539613349,5.769055786,241.2956967,158.7043033,-1.01270282,,0.231275591,0.660972529,-64.03771376,-0.041069549,4.831478354,0.059789187,0,31.83355887,-4.830865373,10.92743063,27.21084733,41.49825908,58.2018984,87.19704958,0.064290717,1.00830932,16.95833554,1.014658835,1.83046221,1.079147563,-1.050745884,1.079147563,0.041241993,1.079147563,-0.00187896,1.148874721,800000009,800000009,800000009,800000009,800000009,800000009,800000000,800000000,80100,80100,89,80,5,2,0,3,3,6,0,0,0,0,0,0,0,0,0,0,0,0,0,0,0,0,18000,0.778196793,0.445986076,0.097762188,0.045183158,0.001326283,39.3628345,2.58E-08,0.013791616,-0.001050746,0.041241993,-1.88E-06,1.943979489,54.47908494,15.4901392,15.38066986,15.3414974,0.55,2.704198185,200.5,17.48833333,15.16,15.19833333,15.12166667,0.018666667,93.5,92.06666667,92.65,0,186.8166667,254.7333333,147.7666667,25.48166667,370,505.2666667,307.5333333,44.83166667,7999,1300.5,1302.666667,1298.833333,0.990666667,1.1995,1.9515,0.6485,0.329666667,12.54166667,,,,,,,,,,,84.75666667,1,1,1,1,570,193,2016-07-11 03:30:00-06:00,255,,,,,,,0.03095081,0.295801815,-0.042228212,0.029975882,,,,,,,,,,
7/11/2016 7:00,7/11/2016 7:00,193.416,1,18000,18000,0.198334365,0,53.07909591,0,19.14667998,0,-0.337747167,0,0.431325465,0,0.011732699,0,-0.330071623,0,0,0,0,3.15E-11,1.31E-12,1.58E-13,16.54629455,392.6952215,399.2230743,0,1,688.9692694,16.35139148,16.623204,0,1,0.082753253,1.958197015,1.990748523,0,1,289.1004082,288.6530254,101118.6513,1.212883754,1014.433937,0.023733122,0.02794989,0.012415226,1653.874169,1755.974791,0.010236122,94.18553031,102.100622,287.6971145,-3.249969629,2.134032486,0.006424473,3.887986435,1.73E-14,1.90E-15,3.887986435,7.533662261,253.2901644,146.7098356,0.094675066,,0.404379747,0.879170831,-109.6551734,-0.023984277,2.772234976,0.106682006,0,39.12659409,-5.937611605,13.43089362,33.44482415,51.00546707,71.53589279,107.1738029,0.196677108,1.008426286,53.25992243,1.01694799,12.96805472,1.09983662,-2.709539456,1.09983662,0.292136926,1.09983662,-0.004576359,1.162941762,800000009,800000009,800000009,800000009,800000009,800000009,800000000,800000000,80100,80100,89,80,1,1,1,0,1,1,0,0,0,0,0,0,0,0,0,0,0,0,0,0,0,0,18000,1.160343225,0.419545796,0.17845264,0.068362786,0.001847828,35.96998525,2.92E-08,0.043287009,-0.002709539,0.292136926,-4.58E-06,1.944122386,54.42110395,15.34534069,15.24765616,15.17691243,0.55,2.704198185,206.5,17.12166667,15.04166667,15.095,14.99,0.0305,93.3,91.88333333,92.36666667,0,194.55,244.9833333,155.5333333,21.63333333,368.6166667,447.0666667,310.6,36.84166667,7999,1312.666667,1314.5,1311.666667,0.885,1.672166667,2.470833333,1.0605,0.3775,12.67333333,,,,,,,,,,,82.23333333,0,0,0,0,600,193,2016-07-11 04:00:00-06:00,255,-0.337747167,0.011732699,,,,1,0.03095081,0.295801815,-0.024660927,0.052485518,0,0.135904823,0.316744977,2.08E-05,2.20E-57,0.48303208,0.0309707,0,0.966673383,0.200202139
7/11/2016 7:30,7/11/2016 7:30,193.437,1,18000,18000,0.218347305,0,53.00872074,0,17.96705677,0,-1.021087283,0,0.404682908,0,0.010256442,0,-0.362033495,0,0,0,0,4.70E-11,1.94E-12,2.35E-13,16.55915665,392.6615189,399.1186898,0,1,682.2759885,16.17857308,16.44462362,0,1,0.082716924,1.955643838,1.987803665,0,1,288.9498065,288.476626,101144.0926,1.214010583,1014.332934,0.023712652,0.026223452,0.012294614,1636.806032,1736.210057,0.01012727,94.27465447,99.40402495,287.536636,-3.223659526,2.282322109,0.013734455,3.94983083,-5.77E-15,2.84E-15,3.94983083,7.41249737,255.2981524,144.7018476,0.199230782,,0.424094541,0.935438533,-126.6742955,-0.020761907,2.950328561,0.101503646,0,39.54741717,-6.00147313,13.57534856,33.80453738,51.55405245,72.30529159,108.3265025,0.21651603,1.008457917,53.11812588,1.017076912,11.95145752,1.100797916,-3.31669936,1.100797916,0.269189921,1.100797916,-0.005743904,1.163637805,800000009,800000009,800000009,800000009,800000009,800000009,800000000,800000000,80100,80100,89,80,1,1,0,0,5,3,0,0,0,0,0,0,0,0,0,0,0,0,0,0,0,0,18000,1.193268919,0.486510936,0.191097211,0.072904747,0.001896647,34.9656572,2.98E-08,0.043135987,-0.003316699,0.269189921,-5.74E-06,1.941728843,54.40108868,15.17382342,15.07783148,15.0179357,0.55,2.704198185,212.5,16.85,14.78833333,14.855,14.735,0.034833333,93.98333333,92.51666667,93.36666667,0,181.8333333,218.85,146.7833333,19.04,347.5,420.85,288.0333333,36.455,7999,1314,1315.166667,1312.833333,0.649833333,1.466333333,2.064833333,0.947833333,0.291166667,12.70333333,,,,,,,,,,,79.71,0,0,0,0,630,193,2016-07-11 04:30:00-06:00,255,-1.021087283,0.010256442,,,,1,0.03095081,0.295801815,-0.021347647,0.059382542,0,0.132526471,0.32470736,1.87E-05,5.86E-55,0.477172929,0.031774826,0,0.966200288,0.198101009
7/11/2016 8:00,7/11/2016 8:00,193.458,1,18000,18000,0.253084279,0,57.82949461,0,11.98414901,0,-0.146511388,0,0.269854262,0,0.008503355,0,-0.569890961,0,0,0,0,-2.35E-11,-9.58E-13,-1.17E-13,16.58679583,392.8097642,399.19731,0,1,675.6575602,16.00097388,16.26116841,0,1,0.082808105,1.955220285,1.987014451,-0.8,0,288.6772011,288.1992969,101177.3176,1.215660116,1014.227494,0.023682076,0.017486556,0.012175349,1619.369879,1705.531327,0.010015422,94.94811696,86.16144783,287.3711714,-3.429119999,3.195341529,0.028162681,4.687202214,-1.46E-14,-1.42E-15,4.687202214,9.151385076,262.9788601,137.0211399,0.344259198,,0.456274817,1.131443982,-144.6318426,-0.018184101,4.825498628,0.102795795,0,38.55679368,-5.851142194,13.23529957,32.95776732,50.26267468,70.4941159,105.6130313,0.250841716,1.008940152,57.43736025,1.018705961,6.211934173,1.11222267,-2.654107645,1.11222267,0.139877843,1.11222267,-0.008101409,1.172114735,800000009,800000009,800000009,800000009,800000009,800000009,800000000,800000000,80100,80100,89,80,2,2,0,0,10,3,0,0,0,0,0,0,0,0,0,0,0,0,0,0,0,0,18000,1.344814725,0.682391996,0.235681243,0.067738357,0.001361571,46.6151645,4.86E-08,0.046585088,-0.002654108,0.139877843,-8.10E-06,1.94145302,54.2999422,14.88724811,14.80264129,14.74924999,0.55,2.704198185,218.5,16.59,14.44833333,14.52333333,14.375,0.042,94.43333333,92.63333333,93.48333333,0,201.8833333,239.8333333,167.2,19.36333333,388.1333333,461.1833333,330.75,36.52166667,7999,1321.333333,1322.833333,1319.666667,0.968166667,2.142666667,2.933833333,1.4555,0.420666667,12.78,,,,,,,,,,,77.18666667,0,0,0,0,660,193,2016-07-11 05:00:00-06:00,255,-0.146511388,0.008503355,,,,1,0.03095081,0.295801815,-0.018697115,0.040074037,0,0.115892148,0.374111713,7.94E-06,1.26E-53,0.441084376,0.034081,0,0.965177177,0.184795971
7/11/2016 8:30,7/11/2016 8:30,193.479,1,18000,18000,0.260928406,0,65.86992505,0,13.23950535,1,0.144368521,0,0.298020882,1,0.009458078,0,-0.725139108,0,0,0,0,4.78E-11,1.90E-12,2.39E-13,16.60957864,392.7650974,399.0032082,0,1,661.1536904,15.63423728,15.88254881,0,1,0.082982951,1.955960475,1.987026112,-0.8,0,288.2332657,287.8469175,101203.9191,1.217638186,1014.013714,0.023646903,0.019311753,0.01191399,1582.670506,1667.237537,0.009784507,94.9277155,84.56703111,287.0177234,-3.142278058,3.642586633,0.056947897,4.810986576,-3.49E-16,2.88E-15,4.810986576,8.542649175,269.217296,130.782704,0.678228941,,0.462915317,1.260528517,-132.6178107,-0.019831424,4.975255745,0.115245382,0,38.82198576,-5.891386116,13.32633144,33.18444953,50.60837934,70.97897161,106.3394335,0.258591544,1.009036887,65.38028019,1.018992819,6.811441675,1.114127869,-2.738540975,1.114127869,0.153325355,1.114127869,-0.009398589,1.1735597,800000009,800000009,800000009,800000009,800000009,800000009,800000000,800000000,80100,80100,89,80,2,0,0,0,5,0,0,0,0,0,0,0,0,0,0,0,0,0,0,0,0,0,18000,1.224326552,1.058260875,0.238469607,0.094077373,0.001713985,55.64223469,3.82E-08,0.052952283,-0.002738541,0.153325355,-9.40E-06,1.942486465,54.20155531,14.49476037,14.39991653,14.33980999,0.55,2.704198185,224.5,16.38833333,13.96166667,14.05166667,13.88333333,0.051833333,95.15,93.36666667,94.75,0,152.6666667,184.7666667,115.3366667,19.39366667,305.3333333,363.5666667,242.2833333,33.61333333,7999,1316.833333,1320.166667,1314.666667,1.59,1.052833333,1.748833333,0.428666667,0.3575,12.77833333,,,,,,,,,,,74.66333333,0,0,0,0,690,193,2016-07-11 05:30:00-06:00,255,0.144368521,0.009458078,,,,1,0.03095081,0.295801815,-0.020390913,0.038149494,0,0.099450383,0.428583858,0.000114293,2.58E-34,0.401538453,0.03523653,0,0.964923516,0.169763396
7/11/2016 9:00,7/11/2016 9:00,193.499,1,18000,18000,0.270715572,0,64.172052,0,10.49996349,1,1.471425801,0,0.236229504,1,0.014895985,0,-1.129381688,0,0,0,0,-5.27E-11,-2.04E-12,-2.63E-13,16.67365053,393.4056695,399.484439,0,1,644.9200691,15.21653648,15.45165719,0,1,0.083100865,1.95360938,1.983795883,0,1,287.7336474,287.2992691,101235.9171,1.220538854,1013.767894,0.023594453,0.015307672,0.01162146,1540.873238,1609.221326,0.009521581,95.75272297,68.3480877,286.6062923,-2.738463158,4.299292662,0.085290501,5.098075355,1.46E-14,-3.16E-15,5.098075355,9.546500051,277.5046294,122.4953706,0.958599743,,0.47095652,1.407890982,-143.3648262,-0.018344807,6.111645254,0.110122223,0,36.55362602,-5.547153773,12.54767694,31.24548974,47.65134332,66.83168655,100.1260448,0.268227709,1.009275188,63.5211682,1.019669283,4.618140638,1.118526466,-1.458548325,1.118526466,0.103899511,1.118526466,-0.004139751,1.176924886,800000009,800000009,800000009,800000009,800000009,800000009,800000000,800000000,80100,80100,89,80,2,2,0,0,0,5,0,0,0,0,0,0,0,0,0,0,0,0,0,0,0,0,18000,1.605482547,0.923380115,0.286919302,0.088144256,0.001420021,75.8260213,4.52E-08,0.051336746,-0.001458548,0.103899511,-4.14E-06,1.940493799,53.95228427,13.95783759,13.87125136,13.82759857,0.55,2.704198185,230.5,15.98,13.51833333,13.61833333,13.43,0.0645,95.18333333,93.48333333,94.63333333,0,164.7,213.6,128.4533333,22.37633333,328.4666667,427.0333333,256.4833333,42.87666667,7999,1321.5,1324.666667,1319.166667,1.559,1.362666667,2.420333333,0.569833333,0.454666667,12.80333333,,,,,,,,,,,72.14,0,0,0,0,720,193,2016-07-11 06:00:00-06:00,285,1.471425801,0.014895985,,,,1,0.024490017,0.295801815,-0.018862355,0.031955233,2.51E-92,0.078448422,0.522602551,2.37E-07,8.62E-70,0.323506869,0.038673529,1.36E-300,0.963231608,0.153890343
7/11/2016 9:30,7/11/2016 9:30,193.52,1,18000,18000,0.290353722,0,65.56408068,0,14.84479125,0,0.889911286,0,0.333838847,0,0.01564225,0,-0.909100921,0,0,0,0,1.32E-11,4.96E-13,6.55E-14,16.73404118,394.065856,399.9821432,0,1,628.1171818,14.79137838,15.01344797,0,1,0.082980146,1.946583905,1.975808841,0,1,287.233881,286.8592544,101277.0195,1.223105088,1013.520028,0.023548756,0.021632757,0.011318672,1498.428546,1563.899992,0.009254047,95.81357852,65.47144523,286.1783198,-2.39252714,4.355403959,0.062070666,4.969666239,7.62E-15,7.89E-16,4.969666239,9.726389143,281.2189593,118.7810407,0.715637528,,0.487227522,1.382919535,-155.4051652,-0.01737394,4.416638777,0.108552057,0,39.7707167,-6.035359696,13.65200007,33.99541047,51.84514594,72.71355436,108.9381546,0.287766335,1.00899128,65.1677643,1.018892875,8.507133715,1.113831215,-2.089184936,1.113831215,0.191313684,1.113831215,-0.004048877,1.171443504,800000009,800000009,800000009,800000009,800000009,800000009,800000000,800000000,80100,80100,89,80,3,2,0,1,2,2,0,0,0,0,0,0,0,0,0,0,0,0,0,0,0,0,18000,1.590540149,0.894547778,0.280751143,0.096219347,0.002357422,64.62183664,3.83E-08,0.052569847,-0.002089185,0.191313684,-4.05E-06,1.933861727,53.68032959,13.50157161,13.39331608,13.35127351,0.45,2.704198185,236.5,15.46666667,12.955,13.05333333,12.86666667,0.0575,95.88333333,94.63333333,95.23333333,0,132.8183333,192.0833333,93.04666667,25.68383333,268.5833333,367.9166667,196.9833333,45.255,7999,1313.333333,1316.5,1310,1.926166667,0.617666667,1.681166667,-0.22,0.498833333,12.71666667,,,,,,,,,,,72.62666667,0,0,0,0,750,193,2016-07-11 06:30:00-06:00,285,0.889911286,0.01564225,,,,1,0.024490017,0.295801815,-0.017400954,0.041289432,1.80E-71,0.066138743,0.58486683,4.12E-09,6.53E-94,0.272753092,0.039833371,3.06E-183,0.963592039,0.142380075
7/11/2016 10:00,7/11/2016 10:00,193.541,1,18000,18000,0.226620295,0,44.75241129,0,,2,,2,-0.024670856,2,,2,-1.125302165,0,0,0,0,-1.05E-11,-3.81E-13,-5.19E-14,16.79132608,394.5413266,400.2813071,0,1,610.2919002,14.33986659,14.54849,0.1,0,0.083202029,1.946684467,1.975005787,0,1,286.6707911,286.3157506,101308.9362,1.226023513,1013.25575,0.023496734,-0.001598671,0.01099746,1453.146316,1509.470241,0.008970024,96.26862969,56.32392433,285.7098161,-2.084719468,4.84746578,0.067660688,5.27717327,1.20E-14,-6.24E-16,5.27717327,9.552048519,286.7292111,113.2707889,0.734631568,,0.429932227,1.179414271,-156.4510765,-0.017257791,-40.77259466,0.08379123,0,37.10526615,-5.630867291,12.73703714,31.71702342,48.37046194,67.84026063,101.6370725,0.224544523,1.009244367,43.85112625,1.019606706,-4.021835241,1.118434198,0.171763481,1.118434198,-0.090398331,1.118434198,0.00108223,1.174994839,800000009,800000009,800000009,800000009,800000009,800000009,800000000,800000000,81010,81010,89,80,10,3,0,3,0,4,0,0,0,0,0,0,0,0,0,0,0,0,0,0,0,0,18000,1.34181517,0.75701084,0.260002531,0.108560525,0.002139419,62.83455684,4.51E-08,0.035299039,0.000171763,-0.090398331,1.08E-06,1.93433607,53.52555968,12.99605914,12.86942804,12.83927027,0.45,2.704198185,242.5,14.87666667,12.69166667,12.76166667,12.62,0.045333333,96.51666667,95.06666667,95.9,0,129.2,167.5666667,89.975,26.09916667,264.5666667,339.9,191.6666667,47.67333333,7999,1308.833333,1310.666667,1306.5,1.3775,0.665,1.506666667,-0.118333333,0.528666667,12.67833333,,,,,,,,,,,73.11333333,0,1,1,1,780,193,2016-07-11 07:00:00-06:00,285,,,,,,1,0.024490017,0.295801815,-0.017284625,0.017637798,4.79E-52,0.048377269,0.653977788,8.61E-12,4.42E-132,0.220715172,0.04140349,4.30E-112,0.964473719,0.12530704
