datetime,datetime,DOY,daytime,file_records,used_records,Tau,qc_Tau,H,qc_H,LE,qc_LE,co2_flux,qc_co2_flux,h2o_flux,qc_h2o_flux,ch4_flux,qc_ch4_flux,H_strg,LE_strg,co2_strg,h2o_strg,ch4_strg,co2_v-adv,h2o_v-adv,ch4_v-adv,co2_molar_density,co2_mole_fraction,co2_mixing_ratio,co2_time_lag,co2_def_timelag,h2o_molar_density,h2o_mole_fraction,h2o_mixing_ratio,h2o_time_lag,h2o_def_timelag,ch4_molar_density,ch4_mole_fraction,ch4_mixing_ratio,ch4_time_lag,ch4_def_timelag,sonic_temperature,air_temperature,air_pressure,air_density,air_heat_capacity,air_molar_volume,ET,water_vapor_density,e,es,specific_humidity,RH,VPD,Tdew,u_unrot,v_unrot,w_unrot,u_rot,v_rot,w_rot,wind_speed,max_wind_speed,wind_dir,yaw,pitch,roll,u*,TKE,L,(z-d)/L,bowen_ratio,T*,model,x_peak,x_offset,x_10%,x_30%,x_50%,x_70%,x_90%,un_Tau,Tau_scf,un_H,H_scf,un_LE,LE_scf,un_co2_flux,co2_scf,un_h2o_flux,h2o_scf,un_ch4_flux,ch4_scf,spikes_hf,amplitude_resolution_hf,drop_out_hf,absolute_limits_hf,skewness_kurtosis_hf,skewness_kurtosis_sf,discontinuities_hf,discontinuities_sf,timelag_hf,timelag_sf,attack_angle_hf,non_steady_wind_hf,u_spikes,v_spikes,w_spikes,ts_spikes,co2_spikes,h2o_spikes,ch4_spikes,not_ready_LI-7700,no_signal_LI-7700,re_unlocked_LI-7700,bad_temp_LI-7700,laser_temp_unregulated_LI-7700,block_temp_unregulated_LI-7700,motor_spinning_LI-7700,pump_on_LI-7700,top_heater_on_LI-7700,bottom_heater_on_LI-7700,calibrating_LI-7700,motor_failure_LI-7700,bad_aux_tc1_LI-7700,bad_aux_tc2_LI-7700,bad_aux_tc3_LI-7700,box_connected_LI-7700,u_var,v_var,w_var,ts_var,co2_var,h2o_var,ch4_var,w/ts_cov,w/co2_cov,w/h2o_cov,w/ch4_cov,ch4_mean,rssi_77_mean,ch4_tc_1_mean,ch4_tc_2_mean,ch4_tc_3_mean,canopy_height,Zm,RECORD,PTemp_C_Avg,AirTC_Avg,AirTC_Max,AirTC_Min,AirTC_Std,RH_Max,RH_Min,RH.1,Rain_mm_Tot,NR_Wm2_Avg,NR_Wm2_Max,NR_Wm2_Min,NR_Wm2_Std,PPFD_Avg,PPFD_Max,PPFD_Min,PPFD_Std,PPFD_Tot,Volts_Avg,Volts_Max,Volts_Min,Volts_Std,MilliVolts_Avg,MilliVolts_Max,MilliVolts_Min,MilliVolts_Std,BattV_Min,VWC1,VWC2,Temp1,Temp2,HFP1,HFP2,Storage1,Storage2,G1,G2,PBLH,H_drop,LE_drop,co2_flux_drop,ch4_flux_drop,Minute,Day,UTC,Dir,fco2,fch4,Temp,VWC,ER,Run,Zo,d,Z_L,Z0,Sparse,Upland,Grass,Sedge,Fen,Shrub,Ocean,Water,Sum,Out_of_Basin
2016-07-10 13:30:00,2016-07-10 13:30:00,,,,,,,,,,,,,,,,,,,,,,,,,,,,,,,,,,,,,,,,,,,,,,,,,,,,,,,,,,,,,,,,,,,,,,,,,,,,,,,,,,,,,,,,,,,,,,,,,,,,,,,,,,,,,,,,,,,,,,,,,,,,,,,,,,,,,,,,,,,,,,,,,1.0,38.34333333333333,25.99,26.04,25.92,0.04,34.73666666666667,29.39,31.77,0.2,542.8666666666667,582.5666666666667,503.5,16.846666666666668,1140.3333333333333,1144.0,1136.6666666666667,1.6203333333333332,7999.0,7999.0,7999.0,7999.0,4.839666666666667,2.12,2.276666666666667,2.096,0.043333333333333335,12.536666666666667,,,,,,,,,,,,1,1,1,1,990,,2016-07-10 10:30:00-06:00,,,,,,,,100.0,0.29580181543116707,,,,,,,,,,,,
2016-07-10 14:00:00,2016-07-10 14:00:00,,,,,,,,,,,,,,,,,,,,,,,,,,,,,,,,,,,,,,,,,,,,,,,,,,,,,,,,,,,,,,,,,,,,,,,,,,,,,,,,,,,,,,,,,,,,,,,,,,,,,,,,,,,,,,,,,,,,,,,,,,,,,,,,,,,,,,,,,,,,,,,,,5.5,37.76,26.192500000000006,26.3725,26.105,0.07824999999999999,36.342,29.462,32.56833333333333,0.0,528.4166666666666,567.4499999999998,495.3833333333334,15.71,1113.8333333333333,1132.3333333333333,1050.9666666666667,24.707666666666668,7999.0,5800.166666666668,5801.5,5798.0,30.90583333333333,6.2476,8.013,4.3404,0.8204,12.948333333333332,,,,,,,,,,,,1,1,1,1,1020,,2016-07-10 11:00:00-06:00,,,,,,,,100.0,0.29580181543116707,,,,,,,,,,,,
2016-07-10 14:30:00,2016-07-10 14:30:00,,,,,,,,,,,,,,,,,,,,,,,,,,,,,,,,,,,,,,,,,,,,,,,,,,,,,,,,,,,,,,,,,,,,,,,,,,,,,,,,,,,,,,,,,,,,,,,,,,,,,,,,,,,,,,,,,,,,,,,,,,,,,,,,,,,,,,,,,,,,,,,,,11.5,38.581666666666656,26.015,26.13666666666667,25.866666666666664,0.07416666666666667,35.086666666666666,30.00333333333333,32.61833333333334,0.0,405.78333333333336,491.39999999999986,302.1466666666667,51.17166666666666,742.6999999999998,870.7666666666668,603.425,80.13683333333334,7999.0,1366.6666666666667,1376.0,1355.6666666666667,4.3715,5.716499999999999,10.644166666666667,0.6198333333333331,2.1625,13.201666666666664,,,,,,,,,,,,1,1,1,1,1050,,2016-07-10 11:30:00-06:00,,,,,,,,100.0,0.29580181543116707,,,,,,,,,,,,
2016-07-10 15:00:00,2016-07-10 15:00:00,,,,,,,,,,,,,,,,,,,,,,,,,,,,,,,,,,,,,,,,,,,,,,,,,,,,,,,,,,,,,,,,,,,,,,,,,,,,,,,,,,,,,,,,,,,,,,,,,,,,,,,,,,,,,,,,,,,,,,,,,,,,,,,,,,,,,,,,,,,,,,,,,17.5,33.075,24.87166666666667,25.17833333333333,24.58333333333333,0.18700000000000006,38.28666666666667,32.56666666666667,35.46666666666668,0.0,207.67,386.93666666666667,93.76,96.93716666666666,553.2666666666668,879.8166666666666,358.56666666666666,176.57166666666663,7999.0,1333.8333333333333,1340.3333333333333,1331.0,2.115,2.438166666666667,8.598166666666666,-0.24783333333333324,1.6151666666666664,12.908333333333333,,,,,,,,,,,,1,1,1,1,1080,,2016-07-10 12:00:00-06:00,,,,,,,,100.0,0.29580181543116707,,,,,,,,,,,,
2016-07-10 15:30:00,2016-07-10 15:30:00,,,,,,,,,,,,,,,,,,,,,,,,,,,,,,,,,,,,,,,,,,,,,,,,,,,,,,,,,,,,,,,,,,,,,,,,,,,,,,,,,,,,,,,,,,,,,,,,,,,,,,,,,,,,,,,,,,,,,,,,,,,,,,,,,,,,,,,,,,,,,,,,,23.5,29.85833333333333,25.17,25.45333333333333,24.91166666666666,0.16183333333333336,40.543333333333344,33.61000000000001,35.49833333333333,0.0,431.64999999999986,486.2000000000001,331.46666666666664,43.97000000000001,934.8333333333335,985.5,760.6833333333334,61.63416666666666,7999.0,1344.5,1348.1666666666667,1340.1666666666667,1.9321666666666664,3.3273333333333337,7.9285,0.445,2.0216666666666665,12.993333333333332,,,,,,,,,,,,1,1,1,1,1110,,2016-07-10 12:30:00-06:00,,,,,,,,100.0,0.29580181543116707,,,,,,,,,,,,
2016-07-10 16:00:00,2016-07-10 16:00:00,,,,,,,,,,,,,,,,,,,,,,,,,,,,,,,,,,,,,,,,,,,,,,,,,,,,,,,,,,,,,,,,,,,,,,,,,,,,,,,,,,,,,,,,,,,,,,,,,,,,,,,,,,,,,,,,,,,,,,,,,,,,,,,,,,,,,,,,,,,,,,,,,29.5,29.96666666666667,25.96666666666667,26.133333333333336,25.81833333333334,0.08583333333333333,39.125,33.98166666666666,35.55166666666667,0.0,387.05,416.4,357.2166666666667,13.203333333333333,839.85,848.1666666666665,826.0333333333333,5.269833333333334,7999.0,1332.5,1334.5,1329.8333333333333,0.9855,1.571,3.685833333333333,-1.099,1.221833333333333,12.866666666666667,,,,,,,,,,,,1,1,1,1,1140,,2016-07-10 13:00:00-06:00,,,,,,,,100.0,0.29580181543116707,,,,,,,,,,,,
2016-07-10 16:30:00,2016-07-10 16:30:00,,,,,,,,,,,,,,,,,,,,,,,,,,,,,,,,,,,,,,,,,,,,,,,,,,,,,,,,,,,,,,,,,,,,,,,,,,,,,,,,,,,,,,,,,,,,,,,,,,,,,,,,,,,,,,,,,,,,,,,,,,,,,,,,,,,,,,,,,,,,,,,,,35.5,30.305000000000003,24.95,25.135,24.76833333333333,0.11,49.50666666666667,41.87,48.39666666666667,0.0,320.98333333333335,357.0,284.06666666666666,15.498333333333335,732.5166666666668,740.5,716.2666666666668,4.648,7999.0,1330.6666666666667,1332.3333333333333,1328.8333333333333,0.6915,1.6025,3.313833333333333,-0.09016666666666667,1.014,12.845,,,,,,,,,,,,1,1,1,1,1170,,2016-07-10 13:30:00-06:00,,,,,,,,100.0,0.29580181543116707,,,,,,,,,,,,
2016-07-10 17:00:00,2016-07-10 17:00:00,,,,,,,,,,,,,,,,,,,,,,,,,,,,,,,,,,,,,,,,,,,,,,,,,,,,,,,,,,,,,,,,,,,,,,,,,,,,,,,,,,,,,,,,,,,,,,,,,,,,,,,,,,,,,,,,,,,,,,,,,,,,,,,,,,,,,,,,,,,,,,,,,41.5,29.325,23.51833333333333,23.605,23.403333333333336,0.056833333333333326,63.026666666666664,56.55166666666667,60.35166666666667,0.0,259.98333333333335,286.08333333333337,231.2333333333333,11.506833333333333,642.8333333333334,651.9833333333332,582.2833333333333,12.901833333333334,7999.0,1330.0,1331.5,1328.1666666666667,0.6118333333333333,1.5744999999999998,3.0605,0.045000000000000005,0.9596666666666668,12.845,,,,,,,,,,,,1,1,1,1,1200,,2016-07-10 14:00:00-06:00,,,,,,,,100.0,0.29580181543116707,,,,,,,,,,,,
2016-07-10 17:30:00,2016-07-10 17:30:00,,,,,,,,,,,,,,,,,,,,,,,,,,,,,,,,,,,,,,,,,,,,,,,,,,,,,,,,,,,,,,,,,,,,,,,,,,,,,,,,,,,,,,,,,,,,,,,,,,,,,,,,,,,,,,,,,,,,,,,,,,,,,,,,,,,,,,,,,,,,,,,,,47.5,28.12333333333333,23.37,23.521666666666665,23.211666666666666,0.09216666666666666,64.78333333333335,56.63833333333333,60.26666666666667,0.0,209.13333333333333,225.33333333333331,193.48333333333332,7.168333333333334,561.8833333333333,569.3666666666667,554.7166666666667,4.014666666666667,7999.0,1330.3333333333333,1333.1666666666667,1328.1666666666667,1.1973333333333334,1.6233333333333333,3.7085,-0.17483333333333334,1.2031666666666665,12.845,,,,,,,,,,,,1,1,1,1,1230,,2016-07-10 14:30:00-06:00,,,,,,,,100.0,0.29580181543116707,,,,,,,,,,,,
2016-07-10 18:00:00,2016-07-10 18:00:00,,,,,,,,,,,,,,,,,,,,,,,,,,,,,,,,,,,,,,,,,,,,,,,,,,,,,,,,,,,,,,,,,,,,,,,,,,,,,,,,,,,,,,,,,,,,,,,,,,,,,,,,,,,,,,,,,,,,,,,,,,,,,,,,,,,,,,,,,,,,,,,,,52.5,26.965,24.2225,24.3725,24.095,0.0835,49.21250000000001,43.535,45.2675,0.0,162.475,181.2,142.75,9.5045,489.175,504.2,463.1,12.793,7999.0,1339.25,1341.75,1335.25,1.7047500000000002,2.67775,4.659,0.30475,1.4575,12.945,,,,,,,,,,,,1,1,1,1,1260,,2016-07-10 15:00:00-06:00,,,,,,,,100.0,0.29580181543116707,,,,,,,,,,,,
2016-07-10 18:30:00,2016-07-10 18:30:00,,,,,,,,,,,,,,,,,,,,,,,,,,,,,,,,,,,,,,,,,,,,,,,,,,,,,,,,,,,,,,,,,,,,,,,,,,,,,,,,,,,,,,,,,,,,,,,,,,,,,,,,,,,,,,,,,,,,,,,,,,,,,,,,,,,,,,,,,,,,,,,,,57.0,27.326,23.494,23.541999999999998,23.441999999999997,0.028,54.31,50.71,52.39400000000001,0.0,109.3,117.23999999999998,100.78,3.7516,395.42,401.1,389.44,3.3242,7999.0,1343.4,1345.2,1341.2,1.0834,3.2216,4.2826,1.6439999999999997,0.6954,12.978,,,,,,,,,,,,1,1,1,1,1290,,2016-07-10 15:30:00-06:00,,,,,,,,100.0,0.29580181543116707,,,,,,,,,,,,
2016-07-10 19:00:00,2016-07-10 19:00:00,,,,,,,,,,,,,,,,,,,,,,,,,,,,,,,,,,,,,,,,,,,,,,,,,,,,,,,,,,,,,,,,,,,,,,,,,,,,,,,,,,,,,,,,,,,,,,,,,,,,,,,,,,,,,,,,,,,,,,,,,,,,,,,,,,,,,,,,,,,,,,,,,62.5,26.153333333333336,23.015,23.085000000000004,22.96333333333333,0.036000000000000004,55.51,50.99333333333333,53.20833333333334,0.0,69.49,78.86666666666666,55.99,5.215333333333334,322.26666666666665,329.7166666666667,300.98333333333335,6.9061666666666675,7999.0,1336.3333333333333,1337.6666666666667,1335.0,0.69,1.8006666666666666,2.069,1.3926666666666667,0.153,12.933333333333332,,,,,,,,,,,,1,1,1,1,1320,,2016-07-10 16:00:00-06:00,,,,,,,,100.0,0.29580181543116707,,,,,,,,,,,,
2016-07-10 19:30:00,2016-07-10 19:30:00,192.937,1.0,18000.0,18000.0,0.05485445108857067,1.0,-0.11047699328299727,1.0,70.00473416470197,1.0,-2.2523777567244894,1.0,1.5889577576780733,1.0,,2.0,,,,,,2.007726791331761e-11,8.106468612014457e-13,9.956050759879767e-14,15.988224750625413,391.68478124379715,397.9787365942949,-0.2,0.0,645.5462100837249,15.81480308309497,16.06893004755305,-0.2,0.0,0.07928348511602318,1.9421577878866783,1.97336618552154,0.0,1.0,296.3494528266058,296.45768090820314,100608.87069444443,1.1752391461741831,1014.295853210214,0.024498328448158423,0.10296446269753913,0.011632742905022444,1591.5362767195174,2853.66583486386,0.009898192161902632,55.77164141909577,1262.1295581443421,287.10376366639485,1.6882343437803962,-0.6954282390342686,0.08508529416012559,1.8278389268336304,-6.0984234865362975e-15,1.2557534201870814e-15,1.8278389268336304,3.8824538300411455,62.38805428801852,337.6119457119815,2.6680636322474203,,0.2160442998455893,0.2272864100932565,8005.774593185676,0.00034849844540649216,-0.0015781360303872474,-0.0004289810766295065,0.0,46.76909790352684,-7.0973910431946985,16.05431786443784,39.97752145688468,60.968242651786426,85.50882720637335,128.10780490355742,0.05435913355466289,1.0091119468158871,3.9660461453526574,1.0136560475475218,64.67160715638364,1.065480040137073,-2.69349656682359,1.065480040137073,1.4679071796898386,1.065480040137073,0.0005722063361200393,1.135894290952742,800000009.0,800000009.0,800000009.0,800000009.0,800000009.0,800000009.0,800000000.0,800000000.0,80100.0,80100.0,89.0,80.0,2.0,1.0,2.0,7.0,4.0,0.0,1.0,0.0,0.0,0.0,0.0,0.0,0.0,0.0,0.0,0.0,0.0,0.0,0.0,0.0,0.0,0.0,18000.0,0.262801834632349,0.14605551323125834,0.04571547232290563,0.0737720314625331,0.0008748628847761241,404.04545600838685,3.928741080418816e-08,0.0033271077353962644,-0.00269349656682359,1.4679071796898386,5.722063361200393e-07,1.9289520306785897,55.21135978560977,22.293342065042925,22.20937171755898,22.50541578563056,0.35,2.704198184568833,68.5,25.18333333333333,22.19333333333333,22.26,22.133333333333336,0.03766666666666668,59.77,56.72166666666666,58.26333333333334,0.0,30.360000000000007,37.32833333333335,20.800166666666666,4.319,251.55,259.6166666666667,238.05,6.5536666666666665,7999.0,1319.0,1320.0,1317.1666666666667,0.8648333333333332,0.21916666666666665,0.3720000000000001,0.03383333333333335,0.08083333333333333,12.775,,,,,,,,,,,1792.0,0,0,0,1,1350,192.0,2016-07-10 16:30:00-06:00,75.0,,,,,,1.0,0.03329538018068451,0.29580181543116707,0.00033778095462125323,0.08424785219965508,0.20300788032895203,0.009462572755823332,0.6384157067794647,0.0036644147515285472,0.0,0.11545020618221795,0.0,1.404390929727765e-76,0.9700007807979866,0.03946179195783676
2016-07-10 20:00:00,2016-07-10 20:00:00,192.958,1.0,18000.0,18000.0,0.017949256305337544,0.0,0.09374855815583312,0.0,28.728428535242013,0.0,-1.044669380434846,0.0,0.6515441801896207,0.0,0.0006598935881327756,1.0,-1.6714023095193526,0.0,-0.0,0.0,0.0,-1.9637034877034693e-12,-8.207433007911983e-14,-9.753706978437643e-15,16.02299514888777,391.3611489329718,397.86917736170443,-0.2,0.0,669.6920390175193,16.35720683840773,16.62921433687623,-0.2,0.0,0.07958614962890917,1.94275995093806,1.975066522567308,-0.7,0.0,295.57186173502606,295.61898062642416,100625.56366666668,1.1785257454721774,1014.5802057056006,0.024424968321864467,0.04222006287628742,0.012067850749864491,1646.394667637854,2712.352075482804,0.010239785423634929,60.69988783977436,1065.9574078449498,287.6269705153373,1.4451607167654643,-0.4953760339104387,0.053237958140897726,1.5286337666170744,-9.818136118968548e-15,-1.2255533185003676e-16,1.5286337666170744,2.7177564148157014,58.9208256382565,341.0791743617435,1.9958523424625056,,0.1234109491220647,0.08884148256272993,-1758.8419248810087,-0.0015748999161407865,0.003263267882572449,0.000635309640055265,1.0,29.356238305164904,13.0,25.0,48.0,84.0,162.0,544.0,0.017773000358635955,1.0099170620123206,1.7636543710666772,1.013920515017204,26.590103821153193,1.062447597397639,-1.2273131723095434,1.062447597397639,0.6030482096874016,1.062447597397639,-0.0010408704224952894,1.1352144031261993,800000009.0,800000009.0,800000009.0,800000009.0,800000009.0,800000009.0,800000000.0,800000000.0,80100.0,80100.0,89.0,80.0,4.0,7.0,1.0,0.0,0.0,0.0,2.0,0.0,1.0,0.0,0.0,0.0,0.0,0.0,0.0,0.0,0.0,0.0,0.0,0.0,0.0,0.0,18000.0,0.08970333009271396,0.06420467198983626,0.02377496304290961,0.014899746956964187,0.0007415709354811678,132.27218677190479,1.5815168369780816e-08,0.0014749864126566144,-0.0012273131723095436,0.6030482096874016,-1.0408704224952893e-06,1.9290713996026247,55.24530199506548,21.414409310675566,21.41377907127807,21.755527003394217,0.35,2.704198184568833,74.5,24.33,21.655,21.715,21.605,0.03183333333333333,60.94666666666668,58.53,59.935,0.0,5.687333333333334,8.938666666666668,2.7550000000000003,1.4733333333333334,202.1833333333333,206.63333333333333,197.53333333333333,2.5563333333333333,7999.0,1305.3333333333333,1306.0,1304.3333333333333,0.536,-0.6191666666666666,-0.5411666666666667,-0.7725,0.05233333333333332,12.62,,,,,,,,,,,1823.666667,0,0,0,0,1380,192.0,2016-07-10 17:00:00-06:00,45.0,-1.044669380434846,0.0006598935881327756,,,,1.0,0.03472816215079853,0.29580181543116707,-0.0015374879040092138,0.01684547859416288,0.18137808386251297,0.010094038849529733,0.6508983798222476,0.01892408286496548,0.0,0.11008883886915909,0.0,1.3687573698969547e-55,0.971383424268415,0.03871061458111478
2016-07-10 20:30:00,2016-07-10 20:30:00,192.979,1.0,18000.0,18000.0,0.010120719568082814,0.0,,0.0,,0.0,,0.0,0.4414664669909507,0.0,,1.0,-1.276331962749884,-0.0,0.0,-0.0,-0.0,1.1327119795913036e-11,4.731565471973671e-13,5.624494321102677e-14,16.063531057705852,391.4313798007962,397.93801454270204,-0.4,0.0,671.0059598561098,16.350875021033268,16.622670224388088,-0.4,0.0,0.07976364763399266,1.9415494048850164,1.973823140366777,-0.3,0.0,295.02739124891485,294.9800159115261,100644.02419444443,1.1812981078564586,1014.5618114006093,0.024367704609567914,0.028607027061013608,0.012091527603781571,1646.059280788184,2608.8333767889835,0.010235796979072813,63.095607999856036,962.7740960007995,287.62381864885555,1.2816748481392837,-0.5394700145133642,0.042584657373630465,1.3912339005198024,-7.09169215881591e-16,7.051450739704765e-16,1.3912339005198024,2.188662489975276,62.82672192444112,337.17327807555887,1.7540560966972008,,0.09256055318113177,0.05256772037193666,21.268172833454713,0.13024155961544595,-0.1679552600202084,-0.029489273035968527,1.0,34.422931806246424,15.0,32.0,68.0,130.0,291.0,1347.0,0.01003095199291858,1.0089490583972096,-2.1150999626772427,1.0169505759699258,17.847485443276963,1.0888347530322404,-0.5864803474929877,1.0888347530322404,0.4045203174419997,1.0888347530322404,0.0007413779519952568,1.205982908147333,800000009.0,800000009.0,800000009.0,800000009.0,800000009.0,800000009.0,800000000.0,800000000.0,80110.0,80110.0,89.0,80.0,0.0,4.0,1.0,2.0,8.0,5.0,0.0,0.0,0.0,0.0,0.0,0.0,0.0,0.0,0.0,0.0,0.0,0.0,0.0,0.0,0.0,0.0,18000.0,0.05466779095959539,0.03538728567916851,0.015080364105109425,0.0487532049030046,0.0002629982496838251,83.62627615189714,2.3933847390927816e-08,-0.0017647893652486164,-0.0005864803474929878,0.4045203174419997,7.413779519952569e-07,1.9278532272146804,55.2781453034083,20.9379901053022,20.859757812288066,21.17824888700916,0.35,2.704198184568833,80.5,23.513333333333332,20.821666666666665,20.913333333333334,20.721666666666668,0.05466666666666667,64.66833333333334,62.43,64.19333333333333,0.0,-16.525000000000002,-14.7315,-18.386666666666667,0.9398333333333334,149.68333333333334,153.88333333333333,145.63333333333333,2.4091666666666667,7999.0,1298.0,1298.6666666666667,1297.8333333333333,0.3148333333333333,-1.1363333333333332,-1.0656666666666668,-1.2856666666666663,0.04633333333333334,12.558333333333335,,,,,,,,,,,1855.333333,1,1,1,1,1410,192.0,2016-07-10 17:30:00-06:00,75.0,,,,,,,0.03329538018068451,0.29580181543116707,0.12714764948285284,,,,,,,,,,,
2016-07-10 21:00:00,2016-07-10 21:00:00,193.0,1.0,18000.0,18000.0,0.006717715745050409,1.0,,0.0,,0.0,,2.0,0.11492074353370407,0.0,,1.0,-1.922889150416607,0.0,0.0,0.0,0.0,-4.592183680347513e-13,-1.9313537374040998e-14,-2.2845582389582765e-15,16.159558825545837,392.4484007350528,399.03461273174287,0.0,1.0,679.629268012153,16.50536516519626,16.782364214898482,0.0,1.0,0.08039193512842663,1.9486368483865109,1.9813395816987052,-0.6,0.0,294.0830227686564,294.02060755750864,100654.85488888886,1.185210627633004,1014.6271203338248,0.02428583632584392,0.007446864180984024,0.012246919619415935,1661.7907738367896,2459.885024506463,0.010333116607192749,67.55562789647868,798.0942506696733,287.77105457570633,1.3402234161231323,-0.4747531058922479,0.03821832040561522,1.4223396066670175,1.3709604240411602e-14,-2.841775403600722e-17,1.4223396066670175,2.0177473695106984,59.50589172737768,340.4941082726223,1.5397251360107205,,0.07528579537742887,0.03459394422549244,9.31927907616818,0.2972332921205901,-0.7916527570767337,-0.04437700038608307,1.0,51.04998371570529,22.0,50.0,108.0,217.0,519.0,2767.0,0.0066317527930188705,1.0129623275647477,-3.6435258844239486,1.026096325519104,4.688790043058616,1.1372411222800929,0.0020263082162001343,1.1372411222800929,0.1061746778818408,1.1372411222800929,0.0003816194912862263,1.3147939490127742,800000009.0,800000009.0,800000009.0,800000009.0,800000009.0,800010009.0,800000000.0,800000000.0,81110.0,81110.0,89.0,80.0,8.0,4.0,0.0,9.0,1.0,9.0,0.0,0.0,0.0,0.0,0.0,0.0,0.0,0.0,0.0,0.0,0.0,0.0,0.0,0.0,0.0,0.0,18000.0,0.03277705459826205,0.026932281046163603,0.009478552806559229,0.1248607686855589,0.0027256549905308124,42.918688929262565,2.0471533013146936e-07,-0.0030298411211398873,2.0263082162001337e-06,0.1061746778818408,3.816194912862263e-07,1.9347235753536225,55.34380575932397,19.94285770442761,19.877406961281988,20.131955026255763,0.35,2.704198184568833,86.5,22.406666666666666,19.695,19.785,19.611666666666668,0.0515,68.61833333333334,66.94500000000001,67.98166666666667,0.0,-31.19833333333333,-30.08333333333333,-32.5,0.6591666666666667,108.16666666666669,110.95,105.36666666666667,1.8076666666666668,7999.0,1295.0,1295.0,1294.6666666666667,0.1698333333333333,-1.3995,-1.359,-1.5845,0.04533333333333334,12.5,,,,,,,,,,,1887.0,1,1,1,1,0,193.0,2016-07-10 18:00:00-06:00,45.0,,,,,,,0.03472816215079853,0.29580181543116707,0.29017246532343594,,,,,,,,,,,
2016-07-10 21:30:00,2016-07-10 21:30:00,193.02,1.0,18000.0,18000.0,0.010733085962482113,1.0,,2.0,,1.0,,2.0,0.02778663666182884,1.0,,1.0,-1.4708069208627814,-0.0,0.0,-0.0,0.0,4.1578871946642826e-11,1.7263075392458206e-12,2.0970865600444586e-13,16.32051172293557,395.3607464215322,401.95887284168236,0.0,1.0,677.6091104109023,16.414929153085257,16.688875868104827,0.0,1.0,0.08231470500483275,1.988680117330111,2.021868952949601,0.0,1.0,293.1943415078057,293.2885835264238,100657.32901351804,1.1882389082267877,1014.5601679026756,0.02422477635097208,0.0018005740556865087,0.01221051637881767,1652.726131899335,2351.2938813833052,0.01027614589480112,70.29007071319427,698.5677494839696,287.6863661183845,0.9972315339247176,-0.9779568095476072,0.003807026587301256,1.3967407587114713,4.1161023492215156e-16,2.5476451138606856e-15,1.3967407587114713,2.6329274197193016,84.44090126451644,315.55909873548364,0.15616844047118705,,0.09504087353913623,0.15403399339375606,58.58154189203445,0.04728451847691375,-1.047122252624488,-0.011222472487102385,1.0,33.79174190860857,15.0,31.0,61.0,112.0,234.0,929.0,0.010646232547100978,1.008158136223014,-1.1976738132050773,1.0148720063010814,1.2218130296432046,1.0776583143659877,-0.3451950261901232,1.0776583143659877,0.027647608943321512,1.0776583143659877,-0.01907242111310529,1.1802496933609965,800000009.0,800000009.0,800000009.0,800000009.0,800000019.0,800000019.0,800000010.0,800000010.0,80100.0,80100.0,89.0,81.0,0.0,4.0,1.0,1.0,2.0,1.0,3.0,0.0,103.0,0.0,0.0,0.0,0.0,0.0,0.0,0.0,0.0,0.0,0.0,0.0,0.0,0.0,18000.0,0.06919804257304442,0.2311687695559976,0.0077011746584700795,0.1366775168211871,0.00421827923327409,63.328603787280386,5.0146686447213364e-06,-0.0009934750784654476,-0.00034519502619012317,0.027647608943321512,-1.9072421113105293e-05,2.1273435721132694,55.09371061454687,19.058640100638087,19.017615335040627,19.22985641453,0.35,2.704198184568833,92.5,21.19,18.960000000000004,19.106666666666666,18.825,0.0795,71.90333333333331,69.44333333333333,71.045,0.0,-42.97666666666667,-41.165,-45.32666666666666,0.9126666666666664,78.19833333333334,80.37499999999999,76.255,1.4096666666666668,7999.0,1292.8333333333333,1293.1666666666667,1292.5,0.14366666666666664,-1.5713333333333337,-1.534166666666667,-1.7596666666666667,0.05216666666666666,12.475,,,,,,,,,,,1610.933333,1,1,1,1,30,193.0,2016-07-10 18:30:00-06:00,75.0,,,,,,,0.03329538018068451,0.29580181543116707,0.04616126679548072,0.006534619358026277,,,,,,,,,,
2016-07-10 22:00:00,2016-07-10 22:00:00,193.041,1.0,18000.0,18000.0,0.006117701507672922,1.0,,2.0,,1.0,,2.0,-0.2668933483509617,1.0,,2.0,-1.8744248112599131,0.0,0.0,0.0,0.0,1.6381829314312908e-11,6.876355288922687e-13,8.433098973055323e-14,16.45493811633852,397.29364444557837,404.03151669790105,0.0,1.0,690.7043076460333,16.67660064588645,16.95942622421099,0.4,0.0,0.08470734193851139,2.0382646648952045,2.072832464104911,0.0,1.0,292.47891441938623,292.35880021902386,100672.49379715003,1.1920787293842996,1014.6881556175057,0.02414434145158501,-0.017294688973142316,0.012446491837037898,1679.325315520265,2219.4291811735534,0.010440998174228328,75.66473982433172,540.1038656532885,287.93372920670623,0.035707322016718585,-0.8220135023346038,-0.004697145163354228,0.8228020867977267,-5.1500164881617206e-14,9.95557029658287e-16,0.8228020867977267,2.5407473427259744,127.51270084280719,272.4872991571928,-0.3270872300180661,,0.07163770631491438,0.3829600075401103,-151.75721655434367,-0.01825283873078993,-0.018008146869870942,0.002453379897730821,1.0,27.502054761092662,12.0,23.0,43.0,73.0,136.0,418.0,0.006059674491600321,1.0095759295574436,-0.4636462461401673,1.015143196066406,-10.875431531135133,1.069079625218375,-0.27247067192044544,1.069079625218375,-0.24587211006578244,1.069079625218375,-0.03890665423291435,1.1746021283221009,800000009.0,800000009.0,800000009.0,800000009.0,800000019.0,800100119.0,800000010.0,800000010.0,80010.0,80010.0,89.0,81.0,10.0,3.0,0.0,3.0,9.0,4.0,6.0,0.0,120.0,0.0,0.0,0.0,0.0,0.0,0.0,0.0,0.0,0.0,0.0,0.0,0.0,0.0,18000.0,0.1923098429657948,0.5643083628267276,0.009301809287698123,0.3644390222674641,0.009670595979252905,888.0525939260161,1.3349939807840718e-05,-0.0003833091780210386,-0.0002724706719204454,-0.24587211006578244,-3.890665423291435e-05,2.025221563888921,54.31849410481265,18.67794164292021,18.310841481632792,18.411327738973807,0.35,2.704198184568833,98.5,20.08833333333333,18.071666666666673,18.133333333333336,18.015,0.033,88.33333333333331,85.40166666666666,88.03333333333332,0.0,-60.03166666666666,-55.84666666666666,-65.405,1.9261666666666668,56.84666666666666,58.18833333333333,55.035,0.7931666666666666,7999.0,1291.0,1291.5,1290.8333333333333,0.17683333333333331,-1.6905,-1.658,-1.8780000000000001,0.04833333333333333,12.453333333333333,,,,,,,,,,,1334.866667,1,1,1,1,60,193.0,2016-07-10 19:00:00-06:00,135.0,,,,,,,0.028473084273825826,0.29580181543116707,-0.017819239479794163,0.02437271960284338,,,,,,,,,,
2016-07-10 22:30:00,2016-07-10 22:30:00,193.062,1.0,18000.0,18000.0,0.01920044984055453,1.0,,0.0,,1.0,,0.0,-0.11219208013733442,1.0,,1.0,-1.8021562992604407,0.0,-0.0,0.0,0.0,1.695972621631097e-11,8.155816961149904e-13,9.082555617155076e-14,16.49010448667738,396.7982621049547,404.5171608715447,0.0,1.0,792.9979066185153,19.081758484508875,19.452955075061194,0.0,1.0,0.0883105595118055,2.1187733040686507,2.1599897059669377,0.0,1.0,292.3483782925076,291.46824952867297,100705.90091666668,1.1950230624914924,1016.0352447361104,0.0240628106647556,-0.00727004679289927,0.01428982252210538,1922.1611403678837,2099.245742880447,0.011957779703692635,91.5643700546664,177.08460251256386,290.04552144531965,-1.6450968745822858,0.3278108622279242,-0.038902241461426235,1.677890661677846,-4.234648429992222e-14,1.02847900266569e-15,1.677890661677846,4.18105470141409,231.26945528767388,168.73054471232615,-1.3285335236189184,,0.1267557176719605,0.31897931608311925,15.661423269994595,0.1723981245799592,2.299050391836563,-0.07419396344641616,1.0,28.539310675833022,12.0,27.0,57.0,111.0,252.0,1207.0,0.018990698024148458,1.0110449766585383,-11.444753597140082,1.0223168756458578,-3.3311531037573903,1.1225031051540055,1.208327872106199,1.1225031051540055,-0.0752461171524707,1.1225031051540055,0.0039408349998377385,1.2702507425566314,800000009.0,800000009.0,800000009.0,800000009.0,800000009.0,800001109.0,800000000.0,800000000.0,81010.0,81010.0,89.0,81.0,2.0,5.0,3.0,3.0,3.0,5.0,1.0,0.0,1.0,0.0,0.0,0.0,0.0,0.0,0.0,0.0,0.0,0.0,0.0,0.0,0.0,0.0,18000.0,0.4458530251529909,0.14961600923172266,0.042489597781524974,0.06202710989607016,0.0014726602630850331,33.930146537829586,2.1039194656257846e-06,-0.00942586872275502,0.001208327872106199,-0.0752461171524707,3.940834999837738e-06,2.1011966131925557,55.20955948670705,18.023985947397016,17.905839024861635,17.9191529414389,0.45,2.704198184568833,104.5,19.148333333333333,17.691666666666666,17.75,17.639999999999993,0.02983333333333333,90.56666666666666,89.75,90.31666666666666,0.0,-69.44666666666667,-64.28333333333335,-75.47500000000002,2.3171666666666666,41.72333333333333,42.90000000000001,40.35,0.8801666666666668,7999.0,1289.5,1289.6666666666667,1289.3333333333333,0.13699999999999998,-1.8056666666666663,-1.7708333333333333,-1.996333333333333,0.04633333333333333,12.441666666666668,,,,,,,,,,,1058.8,1,1,1,1,90,193.0,2016-07-10 19:30:00-06:00,225.0,,,,,,,0.045000000000000005,0.29580181543116707,0.17266618352303598,,,,,,,,,,,
2016-07-10 23:00:00,2016-07-10 23:00:00,193.083,1.0,18000.0,18000.0,0.03243668156670495,0.0,,1.0,,1.0,,1.0,-0.07835860067973956,1.0,,1.0,-1.03111959174628,-0.0,0.0,-0.0,-0.0,2.959358992256627e-11,1.4120323018127927e-12,1.5473264407294802e-13,16.529171091238663,396.94427439831225,404.60747913470436,0.0,1.0,788.6749652235246,18.939849438227697,19.30549256065737,0.0,1.0,0.08642420044251617,2.0686897196781464,2.108626793671702,0.0,1.0,291.91584469604487,290.9597128177218,100731.29391666666,1.197478284816229,1015.9453166853833,0.024014771957240718,-0.005077637324047123,0.014211923116832934,1908.347297187168,2033.206517420568,0.011868209467375823,93.85899960660154,124.85922023340014,289.93186325981065,-1.7679238725329407,0.33013295114371793,-0.01425886363113481,1.7985399355296068,-7.510726057809221e-14,1.790385601262996e-15,1.7985399355296068,5.580879080015371,230.57729694555303,169.42270305444697,-0.45424694169362106,,0.1645827767988506,0.6359036134259655,39.75864505172311,0.06614913552960774,2.837424768201668,-0.04918267755626335,1.0,21.23281017642933,9.0,19.0,39.0,73.0,154.0,630.0,0.032157766305155704,1.0086733406450723,-9.877558545102342,1.017199439644211,-2.2196587044275953,1.0961506469297166,0.7061631079120243,1.0961506469297166,-0.050114418614559564,1.0961506469297166,0.013525909675616154,1.2091470322538178,800000009.0,800000009.0,800000009.0,800000009.0,800000009.0,801000019.0,800000000.0,800000000.0,81010.0,81010.0,89.0,81.0,0.0,7.0,2.0,1.0,2.0,0.0,0.0,0.0,0.0,0.0,0.0,0.0,0.0,0.0,0.0,0.0,0.0,0.0,0.0,0.0,0.0,0.0,18000.0,0.3281289755428257,0.8879430350617257,0.055735216247379614,0.0878296548226631,0.0025606561391370857,24.174643866260887,7.312842993875056e-07,-0.008119169969811341,0.0007061631079120243,-0.050114418614559564,1.3525909675616154e-05,2.0516150038109875,54.98604708904689,17.634567916234325,17.523273699018645,17.5259716984431,0.55,2.704198184568833,110.5,18.415,17.10833333333333,17.138333333333335,17.069999999999997,0.01933333333333333,94.16666666666669,93.26666666666668,93.98333333333332,0.0,-70.94,-65.86166666666666,-76.38,2.246,32.76,33.31,32.34,0.31149999999999994,7999.0,1288.3333333333333,1288.5,1288.1666666666667,0.11433333333333336,-1.9083333333333328,-1.8780000000000001,-2.1093333333333333,0.04883333333333333,12.431666666666667,,,,,,,,,,,782.7333332999998,1,1,1,1,120,193.0,2016-07-10 20:00:00-06:00,225.0,,,,,,,0.05500000000000001,0.29580181543116707,0.06801535065017603,,,,,,,,,,,
2016-07-10 23:30:00,2016-07-10 23:30:00,193.104,1.0,18000.0,18000.0,0.02774348837528328,0.0,,0.0,,0.0,,0.0,-0.1215623411873896,0.0,,0.0,-1.163223203270454,-0.0,0.0,-0.0,-0.0,-1.084925247655525e-11,-5.105952894439935e-13,-5.6409648568536696e-14,16.611451893170678,398.0528344960942,405.65209677522654,0.0,1.0,781.7800448286265,18.733447551592718,19.091089474974925,0.0,1.0,0.08636965224395192,2.0619328441060705,2.101297388524289,0.0,1.0,291.3517162000868,290.3872445356581,100752.17444444443,1.200182041181966,1015.8176482175439,0.02396255529354073,-0.007877239708942847,0.014087676649188053,1887.941860276944,1961.0496599446435,0.011737949882431329,96.27200671349836,73.10779966769938,289.7626420361688,-1.558365703548828,0.5486297842033949,-0.03331018811071662,1.6524551052129215,-3.9302103958136654e-16,-6.531188571792217e-16,1.6524551052129215,3.89958034227798,239.39485094172372,160.60514905827625,-1.1550464910932143,,0.15203968862093076,0.2459839798617555,32.052105288373625,0.0820538924459976,1.7877587619406448,-0.051957863850236964,1.0,20.920174429610086,9.0,19.0,39.0,73.0,157.0,665.0,0.02749321018167186,1.009103272842917,-9.762042896482383,1.0179789319043953,-3.954445792979525,1.0984486904028707,0.9955515759729016,1.0984486904028707,-0.08923237674674367,1.0984486904028707,0.002078396248443104,1.2188362008472775,800000009.0,800000009.0,800000009.0,800000009.0,800000009.0,800000009.0,800000000.0,800000000.0,81010.0,81010.0,89.0,80.0,2.0,1.0,2.0,0.0,0.0,3.0,0.0,0.0,0.0,0.0,0.0,0.0,0.0,0.0,0.0,0.0,0.0,0.0,0.0,0.0,0.0,0.0,18000.0,0.30980801039170763,0.14116064756756658,0.04099930176423676,0.018318877266103862,0.0008806217828593002,10.458689061499431,1.5776373836433106e-07,-0.008007147597396194,0.0009955515759729017,-0.08923237674674367,2.0783962484431043e-06,2.0450808751583103,54.55403613101112,17.101692538685278,17.033058396551347,17.024798321353064,0.55,2.704198184568833,116.5,17.828333333333333,16.906666666666666,16.991666666666667,16.813333333333336,0.05033333333333333,95.61666666666667,94.55,95.06666666666666,0.0,-72.88166666666666,-66.48666666666666,-81.16499999999998,2.9331666666666667,27.35333333333333,27.73333333333333,27.24666666666667,0.18316666666666667,7977.5,1286.8333333333333,1287.5,1286.3333333333333,0.15716666666666668,-1.9916666666666665,-1.9516666666666669,-2.154666666666667,0.044,12.436666666666667,,,,,,,,,,,506.6666667,1,1,1,1,150,193.0,2016-07-10 20:30:00-06:00,225.0,,,,,,,0.05500000000000001,0.29580181543116707,0.08436881634573117,,,,,,,,,,,
2016-07-11 00:00:00,2016-07-11 00:00:00,193.12400000000002,1.0,18000.0,18000.0,0.034324297016158425,1.0,,2.0,,2.0,,2.0,0.10314283328158452,2.0,,2.0,-0.191242968267275,-0.0,-0.0,-0.0,-0.0,1.3820736495068978e-10,6.462815586557582e-12,6.978398840318018e-13,16.587535854710463,397.27078837181364,404.79061175519837,0.0,1.0,775.6618853318965,18.577069637999507,18.928709594290105,0.0,1.0,0.08375417693083459,1.998507666074655,2.0363368373077444,0.0,1.0,291.40417663065585,290.2931729634604,100772.51208333332,1.2008848256557116,1015.7269289714751,0.023949958080060358,0.006683655596646676,0.01397742741316798,1872.560134302545,1949.4097127425657,0.011639273904169764,96.05780262929424,76.84957844002012,289.6340175821415,-1.9803406641947237,1.0777357065811504,-0.007442377626710187,2.254621650851307,1.0785350906199967e-13,8.332000977194104e-15,2.254621650851307,5.209293129147902,248.55579837584025,151.44420162415975,-0.1891304475785615,,0.16906361347649207,0.5557495036568095,86.60425996037459,0.030368021171283555,-1.072200583760928,-0.02376780968048249,1.0,28.747648952857872,13.0,26.0,51.0,91.0,187.0,704.0,0.034060657237287066,1.0077403021625413,-4.574365479839125,1.0155893477534337,4.5445385778955485,1.091912858115514,-0.8823100095817429,1.091912858115514,0.102538570537925,1.091912858115514,-0.03982743381875907,1.1875584144709044,800000009.0,800000009.0,800000009.0,800000009.0,800000009.0,800000009.0,800000000.0,800000000.0,80100.0,80100.0,89.0,81.0,0.0,5.0,0.0,0.0,1.0,1.0,0.0,0.0,0.0,0.0,0.0,0.0,0.0,0.0,0.0,0.0,0.0,0.0,0.0,0.0,0.0,0.0,18000.0,0.6846498577856395,0.3578823144692035,0.06896683505877621,0.15260259662726902,0.006530170615190763,63.7695912284937,2.7633778323901948e-06,-0.003750183657247864,-0.0008823100095817429,0.102538570537925,-3.982743381875907e-05,1.9822478529413623,54.00265072864951,17.135032692485435,17.088297927538616,17.08771316517718,0.55,2.704198184568833,122.5,17.688333333333333,17.52,17.558333333333334,17.476666666666667,0.02333333333333333,92.48333333333332,91.2,91.58333333333331,0.0,-77.24166666666666,-71.21666666666667,-84.61166666666666,2.926,26.521666666666665,26.641666666666666,26.52,0.012,7957.333333333332,1285.5,1286.0,1285.1666666666667,0.19633333333333336,-1.9835,-1.9630000000000003,-2.166,0.05416666666666667,12.411666666666667,,,,,,,,,,,230.6,1,1,1,1,180,193.0,2016-07-10 21:00:00-06:00,255.0,,,,,,,0.03095081046535422,0.29580181543116707,0.031224770996324282,0.011413840211706834,,,,,,,,,,
2016-07-11 00:30:00,2016-07-11 00:30:00,193.145,1.0,18000.0,18000.0,0.09679932041048048,0.0,-25.684156770718843,0.0,-8.7825329070158,0.0,0.6055476444689473,0.0,-0.19823939360357934,0.0,-0.0047224133431732155,0.0,0.8377893362011194,0.0,-0.0,0.0,-0.0,2.40796805526458e-12,1.1433405484238368e-13,1.1902282881795373e-14,16.468767134772403,394.9320902387928,402.479378580404,0.0,1.0,781.9625848676898,18.751987662651104,19.11034460898785,0.0,1.0,0.0814030421723922,1.9461127176440696,1.9833036023261816,0.0,1.0,291.81313048638236,290.7057903544108,100786.50083333334,1.199266909124187,1015.8338942416034,0.02398067123099501,-0.012845912705511942,0.014090966020748328,1890.454178523521,2000.9186657274704,0.01174964965141815,94.47931147347323,110.46448720394916,289.7835629820857,-2.297497790080812,1.8650967730858887,0.01302693617021805,2.95926541044693,-1.8261991572761012e-14,1.4621422693993646e-16,2.95926541044693,5.493637157787447,259.0695126358985,140.93048736410148,0.2522216731743724,,0.2841045760237699,0.4643280012288614,78.43965332168568,0.03352896001738067,2.9244589280390203,-0.07420762516973894,0.0,36.80846394498019,-5.5858264116134935,12.635154552122536,31.463321362126283,47.98355029353375,67.29761154888529,100.82408533065932,0.0960093099695468,1.0082284774381178,-25.739889347542146,1.0173213601411004,-5.509618410836699,1.1081369024327994,1.694926385659094,1.1081369024327994,-0.1243631449281422,1.1081369024327994,0.002874703065020405,1.2015304287601505,800000009.0,800000009.0,800000009.0,800000009.0,800000009.0,800000009.0,800000000.0,800000000.0,81010.0,81010.0,89.0,80.0,2.0,3.0,1.0,0.0,0.0,1.0,0.0,0.0,0.0,0.0,0.0,0.0,0.0,0.0,0.0,0.0,0.0,0.0,0.0,0.0,0.0,0.0,18000.0,0.5741567075224691,0.2518841362681581,0.1026151586670956,0.0349385648842948,0.0007111016064124605,15.386146919693983,3.7080481047977914e-08,-0.021128473724462908,0.0016949263856590939,-0.1243631449281422,2.874703065020405e-06,1.9301951762504053,54.04481747277578,17.549298818588277,17.524318126572474,17.52912288983666,0.55,2.704198184568833,128.5,17.655,17.31,17.339999999999996,17.285,0.015666666666666666,92.3,91.43333333333334,91.73333333333332,0.0,-85.05,-77.68833333333333,-93.56666666666668,3.7921666666666662,29.350000000000005,29.68,28.71,0.417,7999.0,1285.0,1285.1666666666667,1284.8333333333333,0.11816666666666666,-1.9573333333333331,-1.9233333333333336,-2.160333333333333,0.052000000000000005,12.396666666666668,,,,,,,,,,,203.61,0,0,0,0,210,193.0,2016-07-10 21:30:00-06:00,255.0,0.6055476444689473,-0.0047224133431732155,,,,1.0,0.03095081046535422,0.29580181543116707,0.03447488699980296,0.0377865921950853,0.0,0.12916439485812334,0.3302664931990647,6.841583748389274e-06,3.452188611125883e-58,0.4706214177241903,0.03421232039467335,0.0,0.9642714677598001,0.19910524749299657
2016-07-11 01:00:00,2016-07-11 01:00:00,193.166,1.0,18000.0,18000.0,0.07419418230048302,0.0,-23.19799617343853,0.0,-4.6378610673461225,0.0,0.3658976885388445,0.0,-0.10466878814361333,0.0,-0.005112113854399177,0.0,-0.34321105010912023,-0.0,0.0,-0.0,-0.0,1.8358412354776953e-11,8.608673028547827e-13,9.04355993094968e-14,16.485457227547965,395.04819491329636,402.5044692956978,0.0,1.0,773.0402185957176,18.52469960258673,18.874341101692334,0.0,1.0,0.08120921218312449,1.939821235174916,1.9764340828439133,0.0,1.0,291.55738623046875,290.5368704800076,100800.38469444444,1.2002333522595372,1015.7014484009301,0.023963435739783576,-0.006782537471706144,0.013930184977772592,1867.7977289018202,1979.6891702817447,0.011606230531377822,94.34802982914732,111.89144137992538,289.59400552462307,-1.826336168039592,2.084828738959646,0.018604408889710315,2.7717071983728365,-1.2216376705841837e-14,1.1136125678151767e-15,2.7717071983728365,5.0347063578144375,268.7812329171136,131.21876708288642,0.3845868404937231,,0.24862917046751398,0.3981767947842389,58.20975039015924,0.04518143407886215,5.0018738889720336,-0.07653615295523515,0.0,34.195250587315385,-5.189261202746201,11.738122969899475,29.229585888054107,44.57696275533402,62.5198240894206,93.66608908951632,0.07357262062142883,1.008448274287421,-23.059585191316824,1.0176688106215137,-2.0817074629482835,1.1089266539037093,1.3409298358103698,1.1089266539037093,-0.04698066506355991,1.1089266539037093,0.0016888216949466988,1.2074140146505037,800000009.0,800000009.0,800000009.0,800000009.0,800000009.0,800000009.0,800000000.0,800000000.0,81010.0,81010.0,89.0,80.0,7.0,7.0,0.0,0.0,2.0,1.0,0.0,0.0,0.0,0.0,0.0,0.0,0.0,0.0,0.0,0.0,0.0,0.0,0.0,0.0,0.0,0.0,18000.0,0.4231998663386361,0.27867935763876245,0.09447436559107923,0.02484700230068061,0.0005972025076300139,39.02129373018054,2.1670075736151264e-08,-0.01891558286108046,0.00134092983581037,-0.04698066506355991,1.6888216949466988e-06,1.9241418448785936,54.01674319203696,17.32413783031039,17.29292224682703,17.296052628623126,0.55,2.704198184568833,134.5,17.59,17.216666666666665,17.243333333333336,17.195000000000004,0.014166666666666666,91.23333333333332,90.26666666666668,90.98333333333332,0.0,-78.17166666666667,-71.83,-86.11833333333334,3.542666666666667,32.35833333333333,32.59333333333333,32.10666666666666,0.12533333333333332,7999.0,1284.1666666666667,1284.8333333333333,1284.0,0.11600000000000005,-1.8868333333333331,-1.8501666666666663,-2.0815,0.05516666666666667,12.386666666666667,,,,,,,,,,,176.62,0,0,0,0,240,193.0,2016-07-10 22:00:00-06:00,255.0,0.3658976885388445,-0.005112113854399177,,,,1.0,0.03095081046535422,0.29580181543116707,0.04645610342672069,0.02799143379143194,0.0,0.10491571918290843,0.41170832556804154,8.920822525477707e-07,1.0213799976585048e-64,0.4095011441347384,0.03689890298466524,0.0,0.9630249839526063,0.1787896382149674
2016-07-11 01:30:00,2016-07-11 01:30:00,193.187,1.0,18000.0,18000.0,0.09313696239771498,0.0,-22.342387018312078,0.0,-4.221872559930032,0.0,0.5381213256352576,0.0,-0.09527682189811064,0.0,-0.00118736586199963,0.0,-0.08409028626249296,-0.0,-0.0,-0.0,-0.0,2.3287155674366788e-11,1.0807136024985257e-12,1.1465399396976234e-13,16.482460048145715,394.84681103037764,402.2170796147821,0.0,1.0,764.9203288608127,18.3241064538165,18.666146917006305,0.0,1.0,0.08115116768198155,1.9378974685021808,1.9740705473593372,-0.8,0.0,291.4137224799262,290.4954954045614,100819.10075,1.2007188953007542,1015.5865428403321,0.0239555751918718,-0.0061739380589975685,0.013783864562242572,1847.9154855619925,1974.5194398978006,0.011479676563922158,93.58811304778236,126.60395433580806,289.4259883373285,-1.91523791656678,2.1530715023117497,0.0279391655531607,2.8817761481582522,-4.574497112658295e-14,1.4128446607086786e-15,2.8817761481582522,4.996996709270727,268.34570639142004,131.65429360858002,0.5554981601533069,,0.27850972359901105,0.4398850311143152,84.96167989621742,0.03095513181015963,5.2920562383537115,-0.06578561295714141,0.0,37.0217159109305,-5.618188220177803,12.708357051209529,31.64560593520244,48.26154576894035,67.68750415586861,101.4082155036555,0.09238977630533064,1.0080873244017283,-22.211405738367443,1.0169530798570379,-1.8154963981681864,1.1053183781188796,1.461405691754737,1.1053183781188796,-0.040971091507271434,1.1053183781188796,0.004748659424997586,1.1981305624507872,800000009.0,800000009.0,800000009.0,800000009.0,800000009.0,800000009.0,800000000.0,800000000.0,81010.0,81010.0,89.0,80.0,2.0,4.0,0.0,0.0,0.0,0.0,0.0,0.0,0.0,0.0,0.0,0.0,0.0,0.0,0.0,0.0,0.0,0.0,0.0,0.0,0.0,0.0,18000.0,0.4944114099016607,0.2881592345042376,0.09719941782273199,0.02339339421224705,0.0004906459447964127,8.620259722805264,2.5302857856588093e-08,-0.01821452134045716,0.0014614056917547366,-0.040971091507271434,4.748659424997586e-06,1.9223958187633088,54.07045492013296,17.250835967805656,17.209618744638234,17.200113746749032,0.55,2.704198184568833,140.5,17.613333333333333,17.156666666666666,17.17833333333333,17.134999999999998,0.013666666666666669,91.16666666666669,89.89999999999998,90.2,0.0,-72.44833333333334,-68.06666666666666,-78.13833333333334,2.021,41.40833333333333,43.276666666666664,39.27,1.3483333333333334,7999.0,1284.0,1284.0,1283.1666666666667,0.2608333333333333,-1.8,-1.76,-2.0195000000000003,0.06033333333333332,12.371666666666668,,,,,,,,,,,149.63,0,0,0,0,270,193.0,2016-07-10 22:30:00-06:00,255.0,0.5381213256352576,-0.00118736586199963,,,,1.0,0.03095081046535422,0.29580181543116707,0.031828445339970576,0.038870580345522196,0.0,0.10487242525850086,0.41084219460842014,2.7813702000104504e-07,1.4460418853080084e-72,0.411478556957729,0.036353691961890616,0.0,0.9635471469235607,0.17767897029683077
2016-07-11 02:00:00,2016-07-11 02:00:00,193.208,1.0,18000.0,18000.0,0.08919073862325692,0.0,-23.891251955958374,0.0,-0.31101901097141643,1.0,0.1874458300335124,0.0,-0.007019105030391284,1.0,-0.003740110784457804,0.0,0.061482655152843985,-0.0,-0.0,-0.0,-0.0,-5.442823241429166e-13,-2.5030751265158083e-14,-2.6798834504323623e-15,16.471001950210994,394.55983050761284,401.8515195081298,0.0,1.0,757.4773874071444,18.14523187430524,18.480566030089623,0.1,0.0,0.08109828958329228,1.9367356352646032,1.9725276060549384,0.0,1.0,291.3283321753608,290.52574680836995,100832.79291666667,1.2008387036893364,1015.4853327276356,0.023954816574018958,-0.00045483800596935516,0.013649742754949448,1830.125188068396,1978.2981256667056,0.01136684111947204,92.5100804739238,148.17293759831026,289.2742984289457,-1.4908037953776363,2.4309138777206405,0.036025235733987485,2.851865364076077,-1.1083478630422199e-14,-3.3044882502484566e-17,2.851865364076077,5.137938646938622,278.4805068931018,121.51949310689821,0.723789028962433,,0.2725320241023003,0.39958822811616135,74.45154202104109,0.03532499030385056,76.81605018721525,-0.0718890980157498,0.0,36.27078065278522,-5.5042308976274885,12.450585277318444,31.003717770988555,47.282625817804615,66.31455500546228,99.35128749225538,0.08846607658857701,1.0081914114723325,-23.515891521695032,1.01716154582304,1.7697740436581175,1.1063983627033414,1.1758557745206637,1.1063983627033414,0.03994041989169034,1.1063983627033414,0.002778221247833603,1.2008091698246457,800000009.0,800000009.0,800000009.0,800000009.0,800000009.0,800000009.0,800000000.0,800000000.0,81110.0,81110.0,89.0,80.0,6.0,2.0,0.0,0.0,2.0,8.0,2.0,0.0,3.0,0.0,0.0,0.0,0.0,0.0,0.0,0.0,0.0,0.0,0.0,0.0,0.0,0.0,18000.0,0.4434547108136887,0.2577576066126042,0.09796413880602976,0.02140029879667281,0.0005073336686249394,103.50663208246462,2.2934504015843788e-08,-0.01928426612277006,0.0011758557745206635,0.03994041989169034,2.7782212478336033e-06,1.9213904703325693,54.049711218039185,17.256946699990166,17.187320541911653,17.153381823857618,0.55,2.704198184568833,146.5,17.681666666666672,17.113333333333333,17.134999999999998,17.096666666666668,0.009000000000000001,89.33333333333331,88.38333333333333,88.98333333333333,0.0,-58.24666666666667,-54.45166666666666,-62.83333333333334,1.8786666666666667,69.11833333333334,71.19666666666667,67.30999999999999,1.2201666666666668,7999.0,1283.6666666666667,1284.0,1283.0,0.2851666666666667,-1.6130000000000002,-1.574,-1.8219999999999998,0.06433333333333334,12.381666666666668,,,,,,,,,,,122.64,0,0,0,0,300,193.0,2016-07-10 23:00:00-06:00,285.0,0.1874458300335124,-0.003740110784457804,,,,1.0,0.024490017189932392,0.29580181543116707,0.03632158731923359,0.03704690948994097,2.225026774908825e-168,0.07732032160336502,0.5653430045696237,8.205502888518061e-13,7.487755307692834e-149,0.27875908210059935,0.04031477407639288,0.0,0.9617371823508015,0.1558979133289564
2016-07-11 02:30:00,2016-07-11 02:30:00,193.229,1.0,18000.0,18000.0,0.051723551857411086,0.0,-14.958847017140956,0.0,-1.0606494541916631,1.0,0.10559296806916728,0.0,-0.023937175319213428,1.0,-0.0024727286723218,0.0,0.030218626142202124,-0.0,-0.0,-0.0,0.0,1.5043920872136226e-11,6.837035225459587e-13,7.422925434722162e-14,16.46848784928852,394.4228646270847,401.62210151816817,0.0,1.0,748.4460500200059,17.92540018059221,18.25258507234429,0.0,1.0,0.08125830916480886,1.9404843829840928,1.9759032392660656,0.0,1.0,291.17532286071776,290.5406130133735,100857.57211111109,1.2011728741155785,1015.3606598883728,0.02395015670149246,-0.0015511289606850301,0.013486998052444769,1808.3972946818412,1980.1573767138407,0.011228190665207308,91.32593782434391,171.7600820319994,289.0872680739,-1.123543415451992,2.2839669649981853,0.022946526991855728,2.5454629140314555,2.5391287237212878e-15,9.134974024215683e-16,2.5454629140314555,4.667876605926264,283.80621384405606,116.19378615594394,0.5165099642335261,,0.20751113800385115,0.272986497053271,52.498309032559916,0.05143022793982633,14.103478729964852,-0.0591059034317412,0.0,35.95064153649044,-5.455648551625145,12.340691878381426,30.73006766943512,46.865292146651704,65.7292385977411,98.47437685487499,0.051297593422074524,1.008303672880554,-14.771963572600589,1.017104621060321,0.32470335629027897,1.103642924970071,0.7341605813909168,1.103642924970071,0.007328039566268344,1.103642924970071,0.0016792086093581258,1.203094755509007,800000009.0,800000009.0,800000009.0,800000009.0,800000009.0,800000009.0,800000000.0,800000000.0,81110.0,81110.0,89.0,80.0,5.0,1.0,0.0,0.0,2.0,14.0,0.0,0.0,0.0,0.0,0.0,0.0,0.0,0.0,0.0,0.0,0.0,0.0,0.0,0.0,0.0,0.0,18000.0,0.31457633893997056,0.16584515054047594,0.06555150462609548,0.015843014300771983,0.00025079101670364475,6.5303881148300755,2.4083336362387584e-08,-0.01211190286756427,0.0007341605813909168,0.007328039566268344,1.6792086093581257e-06,1.9252920004593,54.19364152654012,17.227660669379766,17.102064745267235,17.055139827834232,0.45,2.704198184568833,152.5,17.901666666666667,17.06833333333333,17.086666666666662,17.051666666666666,0.008333333333333333,89.08333333333331,88.18333333333334,88.61666666666667,0.0,-44.46666666666667,-41.34500000000001,-49.16333333333333,2.029666666666667,72.17333333333333,73.5,70.82666666666667,0.9371666666666666,7999.0,1283.5,1284.0,1283.0,0.2445,-1.4641666666666666,-1.421,-1.6806666666666663,0.058666666666666666,12.365,,,,,,,,,,,95.65,0,0,0,0,330,193.0,2016-07-10 23:30:00-06:00,285.0,0.10559296806916728,-0.0024727286723218,,,,1.0,0.024490017189932392,0.29580181543116707,0.05151019593586653,,2.8289692188884427e-146,0.059801457940456736,0.6977337577475023,3.927656192535371e-21,4.01437141520769e-272,0.16076822375711872,0.043263303176669606,0.0,0.9615667426217475,0.14149801849537888
2016-07-11 03:00:00,2016-07-11 03:00:00,193.24900000000002,1.0,18000.0,18000.0,0.058040883024557524,0.0,-12.43673967143859,0.0,0.587810615235063,1.0,-0.08278880078488167,0.0,0.013265975091720096,1.0,-0.0005879253064769344,0.0,0.003521200111873502,-0.0,-0.0,-0.0,-0.0,-2.0764754097717297e-11,-9.398991857396902e-13,-1.0252380681276156e-13,16.455100094636286,394.03492100629995,401.19041702129334,0.0,1.0,744.8263103637697,17.83566035330695,18.159547881490838,0.0,1.0,0.0812453398315275,1.9401031972266565,1.9753345941317269,-0.7,0.0,291.10761001756464,290.5423450173272,100875.40086111109,1.2014190904297384,1015.3097336821652,0.02394606649246332,0.0008596351859434622,0.013421770342721785,1799.6619985873526,1980.3740904375434,0.011171597363182337,90.87485073033531,180.71209185019032,289.0115193975052,-1.3680352292586615,2.0615842495283507,0.022334553885591798,2.4742976455337167,1.839739295748127e-14,-1.2619038461203767e-15,2.4742976455337167,4.564853464347538,276.4323670234136,123.5676329765864,0.5171944676426247,,0.21979597808711912,0.34429964092408893,75.04465123372759,0.035978580160107784,-21.157732353072923,-0.04638672634555792,0.0,37.339123853559386,-5.66635610003942,12.817312926607693,31.9169214705845,48.67531907937965,68.26782710706533,102.2776450332354,0.0575891070298657,1.0078448168063718,-12.213451120566713,1.015998414110347,1.5829641915213917,1.0963321803727366,0.44641569384857455,1.0963321803727366,0.035725049857104035,1.0963321803727366,0.0025677879967008,1.1907890177951432,800000009.0,800000009.0,800000009.0,800000009.0,800000009.0,800000009.0,800000000.0,800000000.0,81110.0,81110.0,89.0,80.0,3.0,2.0,0.0,0.0,7.0,17.0,1.0,0.0,1.0,0.0,0.0,0.0,0.0,0.0,0.0,0.0,0.0,0.0,0.0,0.0,0.0,0.0,18000.0,0.3404747120462664,0.2812292665499371,0.06689530325197457,0.010533673285021456,0.0001796403342480365,14.306951988936758,2.0808618042874613e-08,-0.010012564351618585,0.0004464156938485745,0.035725049857104035,2.5677879967007998e-06,1.9249883841143716,54.27931070476107,17.16806459548738,17.054232831319172,17.010079899787897,0.45,2.704198184568833,158.5,17.858333333333334,17.033333333333335,17.076666666666664,16.99666666666667,0.025000000000000005,89.51666666666668,88.05,88.68333333333334,0.0,-3.8233333333333333,3.039166666666666,-11.475,4.2885,101.67000000000002,105.41666666666669,97.64166666666668,2.423166666666667,7999.0,1283.5,1284.3333333333333,1283.3333333333333,0.15166666666666667,-1.2229999999999999,-1.1336666666666666,-1.4608333333333334,0.08066666666666666,12.368333333333334,,,,,,,,,,,68.66,0,0,0,0,360,193.0,2016-07-11 00:00:00-06:00,285.0,-0.08278880078488167,-0.0005879253064769344,,,,1.0,0.024490017189932392,0.29580181543116707,0.03603452264901026,0.02676484842114667,6.959475495972316e-125,0.08609216905141792,0.4977663252850129,7.328189723590711e-08,2.5259931117005895e-77,0.3364594929184589,0.04054475603961497,0.0,0.9608628165764019,0.16577410851463095
2016-07-11 03:30:00,2016-07-11 03:30:00,193.27,1.0,18000.0,18000.0,0.050477897581635484,0.0,-9.325223372740348,0.0,5.2281916840777765,0.0,,2.0,0.11798727604100034,0.0,-0.00043772543002607137,1.0,-0.08785900257116758,-0.0,-0.0,-0.0,0.0,-5.966180070944857e-11,-2.6993351664614266e-12,-2.9516438508008123e-13,16.432562231911547,393.28858642465934,400.41351518564284,0.0,1.0,743.4739243570963,17.793926755145023,18.116286632560012,0.0,1.0,0.0812966935090211,1.9408999000769065,1.9760617989918068,-0.7,0.0,291.23251914130316,290.4991513722737,100913.39816666668,1.202069437238558,1015.2853241441553,0.023933491373664455,0.007645575487456823,0.01339740034646398,1796.1272785183637,1974.9757684027616,0.011145279907657436,90.94426915277852,178.8484898843983,288.9807760536982,-1.6623447029631309,1.4601317797343711,0.014758868838819312,2.212598596643714,-2.2782430362340755e-14,-3.630705903768746e-15,2.212598596643714,4.402362417624296,261.2946747738353,138.70532522616472,0.38218733714025055,,0.20492070975544502,0.445888403181672,81.12946514609256,0.033280140515385116,-1.7836422105830396,-0.03728685280184638,0.0,34.546702127705736,-5.242595329909163,11.85876491075991,29.53000137876964,45.0351153337537,63.162389594973924,94.62876930760085,0.05009312746564231,1.0076810958999731,-8.897290861500544,1.0153350965849923,5.506121692845569,1.0899985268408203,0.3901063387544128,1.0899985268408203,0.12425946471465407,1.0899985268408203,0.0016825987970167766,1.1847857678366842,800000009.0,800000009.0,800000009.0,800000009.0,800000009.0,800000009.0,800000000.0,800000000.0,81110.0,81110.0,89.0,81.0,2.0,0.0,0.0,1.0,8.0,2.0,1.0,0.0,0.0,0.0,0.0,0.0,0.0,0.0,0.0,0.0,0.0,0.0,0.0,0.0,0.0,0.0,18000.0,0.6299718875859862,0.19118590199357127,0.07061901678378636,0.008929980750353873,0.0006487927183703332,20.33885815043988,2.4707564788778344e-08,-0.007290211440356559,0.0003901063387544128,0.12425946471465407,1.6825987970167763e-06,1.9257951238801083,54.290844453917614,17.229676826847914,17.157946628941502,17.11220900657443,0.45,2.704198184568833,164.5,18.33,17.256666666666664,17.281666666666666,17.224999999999998,0.015833333333333338,88.38333333333333,87.06666666666668,87.93333333333334,0.0,29.31333333333333,37.295,21.825,3.4483333333333337,137.78333333333333,141.11666666666667,132.73333333333335,2.036,7999.0,1284.5,1285.3333333333333,1284.3333333333333,0.18383333333333327,-0.8796666666666667,-0.8238333333333334,-1.0548333333333335,0.06033333333333332,12.37,,,,,,,,,,,71.76333333,0,0,1,0,390,193.0,2016-07-11 00:30:00-06:00,255.0,,-0.00043772543002607137,,,,1.0,0.03095081046535422,0.29580181543116707,0.03333188724588893,0.03231887053826915,0.0,0.12652943476766565,0.3359818058016057,3.1637105424363408e-06,1.3088177881306757e-61,0.46499519446838655,0.03563617519644456,0.0,0.9631457739446448,0.19901983601946538
2016-07-11 04:00:00,2016-07-11 04:00:00,193.291,1.0,18000.0,18000.0,0.022092445899079657,0.0,,0.0,,0.0,,0.0,0.15879582711288506,0.0,,0.0,1.27222807146741,0.0,-0.0,0.0,0.0,-1.1567874442215955e-11,-5.301789223612335e-13,-5.818639489386711e-14,16.400529315365688,393.1846740519114,400.4000606875094,0.0,1.0,751.6692026706276,18.0204434115437,18.351139074778107,0.0,1.0,0.08249464324489222,1.9751518696975805,2.0113981563522088,0.0,1.0,291.25012703196205,291.12563342539465,100960.55988888886,1.1999397609034268,1015.4256879559123,0.023973901481553768,0.01028996959691495,0.013545079264204122,1819.842078741641,2054.550186518048,0.011288132709267106,88.57618035730835,234.7081077764069,289.1860274518668,-1.3557598681376437,-0.0800283775493464,-0.02461058220447021,1.358342755721921,1.444426087191558e-14,-7.053354327642336e-16,1.358342755721921,3.270057439746075,216.62183997555823,183.3781600244418,-1.0381471421721664,,0.13568823020348994,0.22480481076842893,-41.14993795369334,-0.06391261155629395,0.7592975799625901,0.032296492039737675,1.0,22.012088381718417,10.0,18.0,32.0,52.0,92.0,254.0,0.021863309684110103,1.0104803992753248,5.664950124697218,1.0145924580365062,6.021727837062332,1.0635508136878111,-1.0156862193789018,1.0635508136878111,0.13597751597847849,1.0635508136878111,0.014501817711837194,1.1408229972037172,800000009.0,800000009.0,800000009.0,800000009.0,800000009.0,800000019.0,800000000.0,800000000.0,80110.0,80110.0,89.0,80.0,1.0,15.0,1.0,1.0,2.0,1.0,1.0,0.0,1.0,0.0,0.0,0.0,0.0,0.0,0.0,0.0,0.0,0.0,0.0,0.0,0.0,0.0,18000.0,0.21483417353017406,0.19453314444305916,0.04024230356362469,0.010976873848694823,0.000792155597665498,37.94910438425964,2.9495649047383547e-06,0.00464930995804749,-0.0010156862193789018,0.13597751597847849,1.4501817711837194e-05,1.9596026883622049,54.31995674059126,17.722340358098354,17.392064973672227,17.270597769843196,0.55,2.704198184568833,170.5,18.90333333333333,17.023333333333333,17.076666666666668,16.968333333333334,0.033666666666666664,90.31666666666666,88.91666666666669,89.75,0.0,49.473333333333336,66.82166666666666,28.46166666666667,10.223666666666666,206.83333333333331,236.85,174.81666666666663,20.116333333333333,7999.0,1285.0,1285.0,1285.0,0.07016666666666667,-0.8188333333333332,-0.7161666666666666,-1.0493333333333332,0.078,12.395,,,,,,,,,,,74.86666667,1,1,1,1,420,193.0,2016-07-11 01:00:00-06:00,225.0,,,,,,,0.05500000000000001,0.29580181543116707,-0.06571572933140042,,,,,,,,,,,
2016-07-11 04:30:00,2016-07-11 04:30:00,193.312,1.0,18000.0,18000.0,0.028978683672778862,0.0,,0.0,,1.0,,0.0,0.2732194912424192,1.0,,0.0,-0.6517649911180962,-0.0,0.0,-0.0,0.0,-1.1258396092179e-11,-5.153310081949032e-13,-5.902206168253407e-14,16.428499176449243,393.36506093443,400.57766791960165,0.0,1.0,751.9823405049658,18.005514442755345,18.33565738664805,0.0,1.0,0.08612629044180113,2.0591513194380027,2.0969072125384822,0.0,1.0,291.0073016679552,290.8050821244982,100975.05994444444,1.2014417967751632,1015.4113166414024,0.023944065535720444,0.017704623032508762,0.01355072200807558,1818.5955883857525,2013.4903363418127,0.011278716991907226,90.32055210604324,194.89474795606029,289.17529774080305,-1.5342422816730543,-0.16587213330772274,-0.029896725124329625,1.5434723054381572,5.535894602808428e-15,-6.85296689080294e-16,1.5434723054381572,3.6015289893158107,213.82952580231617,186.17047419768383,-1.1098762812423837,,0.15530590149101864,0.2465857478297717,-31.239129526216608,-0.08418928567752958,0.8714724170821336,0.05566995670859437,1.0,21.644974170234217,9.0,18.0,31.0,50.0,87.0,233.0,0.02869703669689403,1.009814496836717,11.089003306198164,1.0143443483931258,10.224248451152905,1.065588847426423,-1.3456597536452457,1.065588847426423,0.2308038985799948,1.065588847426423,0.005113426382117311,1.1415457822261188,800000009.0,800000009.0,800000009.0,800000009.0,800000009.0,800000009.0,800000000.0,800000000.0,80110.0,80110.0,89.0,80.0,3.0,22.0,0.0,0.0,0.0,0.0,0.0,0.0,0.0,0.0,0.0,0.0,0.0,0.0,0.0,0.0,0.0,0.0,0.0,0.0,0.0,0.0,18000.0,0.2675307182318545,0.1690986646627506,0.05654211276493835,0.02962875539790136,0.0014843337541254106,53.92644550992098,3.6068297995715605e-07,0.009089662899684305,-0.0013456597536452462,0.2308038985799948,5.113426382117311e-06,2.042936777121492,54.28861374441782,17.385423184341875,17.043423418839765,16.938962752660107,0.55,2.704198184568833,176.5,19.071666666666673,17.225,17.295,17.15833333333333,0.03833333333333334,88.94999999999997,87.45,88.15000000000002,0.0,110.48333333333336,126.71666666666664,89.625,8.485333333333333,348.9333333333333,359.6833333333333,307.1166666666667,9.936166666666667,7999.0,1288.5,1289.0,1287.6666666666667,0.36566666666666653,-0.16933333333333336,-0.07333333333333335,-0.4061666666666666,0.0795,12.421666666666667,,,,,,,,,,,77.97,1,1,1,1,450,193.0,2016-07-11 01:30:00-06:00,225.0,,,,,,,0.05500000000000001,0.29580181543116707,-0.08656445379822145,,,,,,,,,,,
